{"type": "FeatureCollection", "name": "Foursquare/Overture downtown SD food, coffee & bars", "features": [{"type": "Feature", "geometry": {"type": "Point", "coordinates": [-117.160431, 32.717388]}, "properties": {"name": "401 Brew Street", "category": "coffee", "label": "Coffee Shop"}}, {"type": "Feature", "geometry": {"type": "Point", "coordinates": [-117.158524, 32.717449]}, "properties": {"name": "7 Caf\u00e9", "category": "coffee", "label": "Coffee Shop"}}, {"type": "Feature", "geometry": {"type": "Point", "coordinates": [-117.155037, 32.706738]}, "properties": {"name": "Achilles Coffee Roasters", "category": "coffee", "label": "Coffee Shop"}}, {"type": "Feature", "geometry": {"type": "Point", "coordinates": [-117.158188, 32.71973]}, "properties": {"name": "Achilles Coffee Roasters", "category": "coffee", "label": "Coffee Shop"}}, {"type": "Feature", "geometry": {"type": "Point", "coordinates": [-117.157257, 32.717926]}, "properties": {"name": "Achilles Coffee Roasters", "category": "coffee", "label": "Coffee Shop"}}, {"type": "Feature", "geometry": {"type": "Point", "coordinates": [-117.161148, 32.709148]}, "properties": {"name": "Achilles Coffee Roasters Gaslamp", "category": "coffee", "label": "Coffee Shop"}}, {"type": "Feature", "geometry": {"type": "Point", "coordinates": [-117.159935, 32.722103]}, "properties": {"name": "Adore Coffee House", "category": "coffee", "label": "Coffee Shop"}}, {"type": "Feature", "geometry": {"type": "Point", "coordinates": [-117.152107, 32.7117]}, "properties": {"name": "ASA Bakery", "category": "coffee", "label": "Bakery"}}, {"type": "Feature", "geometry": {"type": "Point", "coordinates": [-117.161354, 32.707027]}, "properties": {"name": "Auntie Anne's", "category": "coffee", "label": "Bakery"}}, {"type": "Feature", "geometry": {"type": "Point", "coordinates": [-117.157066, 32.713428]}, "properties": {"name": "Bake Sale Bakery", "category": "coffee", "label": "Bakery"}}, {"type": "Feature", "geometry": {"type": "Point", "coordinates": [-117.155228, 32.710876]}, "properties": {"name": "Baked Cafe", "category": "coffee", "label": "Bakery"}}, {"type": "Feature", "geometry": {"type": "Point", "coordinates": [-117.154892, 32.7085]}, "properties": {"name": "Bean Bar", "category": "coffee", "label": "Coffee Shop"}}, {"type": "Feature", "geometry": {"type": "Point", "coordinates": [-117.165337, 32.710476]}, "properties": {"name": "Bean Sprouts", "category": "coffee", "label": "Cafe"}}, {"type": "Feature", "geometry": {"type": "Point", "coordinates": [-117.159119, 32.707035]}, "properties": {"name": "Better Buzz", "category": "coffee", "label": "Coffee Shop"}}, {"type": "Feature", "geometry": {"type": "Point", "coordinates": [-117.160683, 32.717411]}, "properties": {"name": "Better Buzz Coffee", "category": "coffee", "label": "Coffee Shop"}}, {"type": "Feature", "geometry": {"type": "Point", "coordinates": [-117.169182, 32.720196]}, "properties": {"name": "Bird Rock Coffee Roasters", "category": "coffee", "label": "Coffee Shop"}}, {"type": "Feature", "geometry": {"type": "Point", "coordinates": [-117.169403, 32.720089]}, "properties": {"name": "Bird Rock Coffee Roasters", "category": "coffee", "label": "Coffee Shop"}}, {"type": "Feature", "geometry": {"type": "Point", "coordinates": [-117.163452, 32.715839]}, "properties": {"name": "Blue Bottle Coffee", "category": "coffee", "label": "Coffee Shop"}}, {"type": "Feature", "geometry": {"type": "Point", "coordinates": [-117.163773, 32.71571]}, "properties": {"name": "Blue Bottle Coffee", "category": "coffee", "label": "Coffee Shop"}}, {"type": "Feature", "geometry": {"type": "Point", "coordinates": [-117.165909, 32.722126]}, "properties": {"name": "Bonjour Patisserie", "category": "coffee", "label": "Bakery"}}, {"type": "Feature", "geometry": {"type": "Point", "coordinates": [-117.168892, 32.712467]}, "properties": {"name": "Brickyard Coffee and Tea", "category": "coffee", "label": "Coffee Shop"}}, {"type": "Feature", "geometry": {"type": "Point", "coordinates": [-117.155701, 32.710415]}, "properties": {"name": "Brooklyn Bagel & Bialy", "category": "coffee", "label": "Bagel Shop"}}, {"type": "Feature", "geometry": {"type": "Point", "coordinates": [-117.161667, 32.716022]}, "properties": {"name": "Bruegger's", "category": "coffee", "label": "Bagel Shop"}}, {"type": "Feature", "geometry": {"type": "Point", "coordinates": [-117.155144, 32.718109]}, "properties": {"name": "Bruegger's Bagels", "category": "coffee", "label": "Bagel Shop"}}, {"type": "Feature", "geometry": {"type": "Point", "coordinates": [-117.155067, 32.717922]}, "properties": {"name": "Bruegger's Bagels", "category": "coffee", "label": "Bagel Shop"}}, {"type": "Feature", "geometry": {"type": "Point", "coordinates": [-117.168571, 32.715569]}, "properties": {"name": "Brueggers Bagels", "category": "coffee", "label": "Bagel Shop"}}, {"type": "Feature", "geometry": {"type": "Point", "coordinates": [-117.156471, 32.712585]}, "properties": {"name": "Cafe Chloe", "category": "coffee", "label": "Cafe"}}, {"type": "Feature", "geometry": {"type": "Point", "coordinates": [-117.156212, 32.709564]}, "properties": {"name": "Cafe De L' Opera", "category": "coffee", "label": "Cafe"}}, {"type": "Feature", "geometry": {"type": "Point", "coordinates": [-117.160789, 32.713364]}, "properties": {"name": "Cafe Lulu", "category": "coffee", "label": "Coffee And Tea Supplies"}}, {"type": "Feature", "geometry": {"type": "Point", "coordinates": [-117.165611, 32.723179]}, "properties": {"name": "Caffe Caritazza", "category": "coffee", "label": "Coffee Shop"}}, {"type": "Feature", "geometry": {"type": "Point", "coordinates": [-117.168427, 32.723267]}, "properties": {"name": "Caffe Italia", "category": "coffee", "label": "Coffee Shop"}}, {"type": "Feature", "geometry": {"type": "Point", "coordinates": [-117.166725, 32.719444]}, "properties": {"name": "Canvas Caf\u00e9 + Lounge", "category": "coffee", "label": "Cafe"}}, {"type": "Feature", "geometry": {"type": "Point", "coordinates": [-117.158615, 32.713409]}, "properties": {"name": "Chiefy Cafe", "category": "coffee", "label": "Cafe"}}, {"type": "Feature", "geometry": {"type": "Point", "coordinates": [-117.159019, 32.713104]}, "properties": {"name": "Chiefy Cafe", "category": "coffee", "label": "Coffee Shop"}}, {"type": "Feature", "geometry": {"type": "Point", "coordinates": [-117.168213, 32.720165]}, "properties": {"name": "Choice Juicery", "category": "coffee", "label": "Smoothie Juice Bar"}}, {"type": "Feature", "geometry": {"type": "Point", "coordinates": [-117.168175, 32.720173]}, "properties": {"name": "Choice Superfood Bar & Juicery", "category": "coffee", "label": "Smoothie Juice Bar"}}, {"type": "Feature", "geometry": {"type": "Point", "coordinates": [-117.158669, 32.718037]}, "properties": {"name": "Christine's Coffee", "category": "coffee", "label": "Coffee Shop"}}, {"type": "Feature", "geometry": {"type": "Point", "coordinates": [-117.160728, 32.708405]}, "properties": {"name": "Cine Cafe", "category": "coffee", "label": "Cafe"}}, {"type": "Feature", "geometry": {"type": "Point", "coordinates": [-117.162308, 32.717979]}, "properties": {"name": "Civic Center Cafe", "category": "coffee", "label": "Cafe"}}, {"type": "Feature", "geometry": {"type": "Point", "coordinates": [-117.162529, 32.718128]}, "properties": {"name": "Civic Center Caf\u00e9", "category": "coffee", "label": "Cafe"}}, {"type": "Feature", "geometry": {"type": "Point", "coordinates": [-117.168602, 32.715439]}, "properties": {"name": "Coffee \"N\" Talk", "category": "coffee", "label": "Coffee Shop"}}, {"type": "Feature", "geometry": {"type": "Point", "coordinates": [-117.158134, 32.709511]}, "properties": {"name": "Coffee & Tea Collective", "category": "coffee", "label": "Coffee Shop"}}, {"type": "Feature", "geometry": {"type": "Point", "coordinates": [-117.159225, 32.7131]}, "properties": {"name": "Coffee And Art", "category": "coffee", "label": "Cafe"}}, {"type": "Feature", "geometry": {"type": "Point", "coordinates": [-117.159142, 32.717403]}, "properties": {"name": "Coffeentalk", "category": "coffee", "label": "Coffee Shop"}}, {"type": "Feature", "geometry": {"type": "Point", "coordinates": [-117.168556, 32.715401]}, "properties": {"name": "Coffeentalk Broadway", "category": "coffee", "label": "Cafe"}}, {"type": "Feature", "geometry": {"type": "Point", "coordinates": [-117.156265, 32.709244]}, "properties": {"name": "Copa Vida", "category": "coffee", "label": "Coffee Shop"}}, {"type": "Feature", "geometry": {"type": "Point", "coordinates": [-117.163605, 32.715538]}, "properties": {"name": "Corner Bakery Cafe", "category": "coffee", "label": "Bakery"}}, {"type": "Feature", "geometry": {"type": "Point", "coordinates": [-117.156303, 32.70974]}, "properties": {"name": "Detox Lounge", "category": "coffee", "label": "Smoothie Juice Bar"}}, {"type": "Feature", "geometry": {"type": "Point", "coordinates": [-117.160561, 32.708588]}, "properties": {"name": "Dls Cine", "category": "coffee", "label": "Cafe"}}, {"type": "Feature", "geometry": {"type": "Point", "coordinates": [-117.158798, 32.717659]}, "properties": {"name": "Donut Bar", "category": "coffee", "label": "Donuts"}}, {"type": "Feature", "geometry": {"type": "Point", "coordinates": [-117.167252, 32.718197]}, "properties": {"name": "Donut Bar & Bakery", "category": "coffee", "label": "Donuts"}}, {"type": "Feature", "geometry": {"type": "Point", "coordinates": [-117.170509, 32.712006]}, "properties": {"name": "Dunkin'", "category": "coffee", "label": "Donuts"}}, {"type": "Feature", "geometry": {"type": "Point", "coordinates": [-117.158958, 32.716743]}, "properties": {"name": "Dunkin'", "category": "coffee", "label": "Coffee Shop"}}, {"type": "Feature", "geometry": {"type": "Point", "coordinates": [-117.162415, 32.715015]}, "properties": {"name": "Dunkin'", "category": "coffee", "label": "Coffee Shop"}}, {"type": "Feature", "geometry": {"type": "Point", "coordinates": [-117.154755, 32.708755]}, "properties": {"name": "East Village Nutrition", "category": "coffee", "label": "Smoothie Juice Bar"}}, {"type": "Feature", "geometry": {"type": "Point", "coordinates": [-117.160652, 32.716602]}, "properties": {"name": "Elixir Espresso Bar", "category": "coffee", "label": "Coffee Shop"}}, {"type": "Feature", "geometry": {"type": "Point", "coordinates": [-117.16597, 32.720284]}, "properties": {"name": "Extraordinary Desserts", "category": "coffee", "label": "Bakery"}}, {"type": "Feature", "geometry": {"type": "Point", "coordinates": [-117.17498, 32.713707]}, "properties": {"name": "Fantail Cafe", "category": "coffee", "label": "Cafe"}}, {"type": "Feature", "geometry": {"type": "Point", "coordinates": [-117.167793, 32.722904]}, "properties": {"name": "Frost Me Cafe and Bakery", "category": "coffee", "label": "Bakery"}}, {"type": "Feature", "geometry": {"type": "Point", "coordinates": [-117.165886, 32.7169]}, "properties": {"name": "Hard Copy Cafe", "category": "coffee", "label": "Cafeteria"}}, {"type": "Feature", "geometry": {"type": "Point", "coordinates": [-117.172859, 32.718285]}, "properties": {"name": "Hazelwoods On the Bay", "category": "coffee", "label": "Cafe"}}, {"type": "Feature", "geometry": {"type": "Point", "coordinates": [-117.15509, 32.708847]}, "properties": {"name": "Hob Coffee East Village", "category": "coffee", "label": "Cafe"}}, {"type": "Feature", "geometry": {"type": "Point", "coordinates": [-117.154282, 32.707623]}, "properties": {"name": "Holy Matcha", "category": "coffee", "label": "Tea Room"}}, {"type": "Feature", "geometry": {"type": "Point", "coordinates": [-117.153442, 32.709137]}, "properties": {"name": "InterAmerican Coffee", "category": "coffee", "label": "Coffee Shop"}}, {"type": "Feature", "geometry": {"type": "Point", "coordinates": [-117.151711, 32.710285]}, "properties": {"name": "Izola", "category": "coffee", "label": "Bakery"}}, {"type": "Feature", "geometry": {"type": "Point", "coordinates": [-117.161652, 32.714428]}, "properties": {"name": "Jamba Juice Horton Plaza", "category": "coffee", "label": "Smoothie Juice Bar"}}, {"type": "Feature", "geometry": {"type": "Point", "coordinates": [-117.168533, 32.723576]}, "properties": {"name": "Juice Crafters", "category": "coffee", "label": "Smoothie Juice Bar"}}, {"type": "Feature", "geometry": {"type": "Point", "coordinates": [-117.156219, 32.711811]}, "properties": {"name": "Juice Saves", "category": "coffee", "label": "Smoothie Juice Bar"}}, {"type": "Feature", "geometry": {"type": "Point", "coordinates": [-117.161758, 32.723972]}, "properties": {"name": "Kenzi Coffee and Tea Garden", "category": "coffee", "label": "Coffee Shop"}}, {"type": "Feature", "geometry": {"type": "Point", "coordinates": [-117.158234, 32.719765]}, "properties": {"name": "Kind Coffee", "category": "coffee", "label": "Coffee Shop"}}, {"type": "Feature", "geometry": {"type": "Point", "coordinates": [-117.167511, 32.716465]}, "properties": {"name": "Kuma Cafe", "category": "coffee", "label": "Cafe"}}, {"type": "Feature", "geometry": {"type": "Point", "coordinates": [-117.163467, 32.711342]}, "properties": {"name": "Lani Coffee", "category": "coffee", "label": "Coffee Shop"}}, {"type": "Feature", "geometry": {"type": "Point", "coordinates": [-117.165024, 32.720459]}, "properties": {"name": "LaosTea, USA", "category": "coffee", "label": "Coffee Shop"}}, {"type": "Feature", "geometry": {"type": "Point", "coordinates": [-117.158646, 32.717354]}, "properties": {"name": "Le Cake Chateau", "category": "coffee", "label": "Bakery"}}, {"type": "Feature", "geometry": {"type": "Point", "coordinates": [-117.16333, 32.711391]}, "properties": {"name": "Lion Coffee", "category": "coffee", "label": "Coffee Shop"}}, {"type": "Feature", "geometry": {"type": "Point", "coordinates": [-117.167206, 32.722076]}, "properties": {"name": "Lofty Coffee Co.", "category": "coffee", "label": "Cafe"}}, {"type": "Feature", "geometry": {"type": "Point", "coordinates": [-117.164764, 32.713772]}, "properties": {"name": "Marketplace Cafe", "category": "coffee", "label": "Cafe"}}, {"type": "Feature", "geometry": {"type": "Point", "coordinates": [-117.160316, 32.719524]}, "properties": {"name": "Med Cafe", "category": "coffee", "label": "Cafe"}}, {"type": "Feature", "geometry": {"type": "Point", "coordinates": [-117.168472, 32.723106]}, "properties": {"name": "Mia Sorella Chimney Cakes", "category": "coffee", "label": "Bakery"}}, {"type": "Feature", "geometry": {"type": "Point", "coordinates": [-117.15538, 32.709927]}, "properties": {"name": "Milk & Cookies", "category": "coffee", "label": "Bakery"}}, {"type": "Feature", "geometry": {"type": "Point", "coordinates": [-117.168571, 32.718323]}, "properties": {"name": "Miracle Potion", "category": "coffee", "label": "Coffee Shop"}}, {"type": "Feature", "geometry": {"type": "Point", "coordinates": [-117.156204, 32.711887]}, "properties": {"name": "Modern Times Coffee", "category": "coffee", "label": "Cafe"}}, {"type": "Feature", "geometry": {"type": "Point", "coordinates": [-117.156212, 32.711849]}, "properties": {"name": "Modern Times Invigatorium", "category": "coffee", "label": "Coffee Shop"}}, {"type": "Feature", "geometry": {"type": "Point", "coordinates": [-117.158722, 32.707047]}, "properties": {"name": "Morsel's", "category": "coffee", "label": "Coffee Shop"}}, {"type": "Feature", "geometry": {"type": "Point", "coordinates": [-117.167747, 32.715172]}, "properties": {"name": "Motherland Coffee Roasters", "category": "coffee", "label": "Coffee Roastery"}}, {"type": "Feature", "geometry": {"type": "Point", "coordinates": [-117.160347, 32.721584]}, "properties": {"name": "MudButts", "category": "coffee", "label": "Cafe"}}, {"type": "Feature", "geometry": {"type": "Point", "coordinates": [-117.155655, 32.70982]}, "properties": {"name": "Myxologie Juice Bar", "category": "coffee", "label": "Smoothie Juice Bar"}}, {"type": "Feature", "geometry": {"type": "Point", "coordinates": [-117.167839, 32.722176]}, "properties": {"name": "Na Tazzulella", "category": "coffee", "label": "Coffee Shop"}}, {"type": "Feature", "geometry": {"type": "Point", "coordinates": [-117.155777, 32.711399]}, "properties": {"name": "Nekter Juice Bar", "category": "coffee", "label": "Smoothie Juice Bar"}}, {"type": "Feature", "geometry": {"type": "Point", "coordinates": [-117.169411, 32.718029]}, "properties": {"name": "North Shore cafe", "category": "coffee", "label": "Cafe"}}, {"type": "Feature", "geometry": {"type": "Point", "coordinates": [-117.158653, 32.71764]}, "properties": {"name": "Old Gallery Cafe", "category": "coffee", "label": "Coffee Shop"}}, {"type": "Feature", "geometry": {"type": "Point", "coordinates": [-117.162758, 32.714924]}, "properties": {"name": "Panera Bread", "category": "coffee", "label": "Cafe"}}, {"type": "Feature", "geometry": {"type": "Point", "coordinates": [-117.168045, 32.722569]}, "properties": {"name": "Panetteria", "category": "coffee", "label": "Bakery"}}, {"type": "Feature", "geometry": {"type": "Point", "coordinates": [-117.168465, 32.722923]}, "properties": {"name": "Parakeet Cafe", "category": "coffee", "label": "Cafe"}}, {"type": "Feature", "geometry": {"type": "Point", "coordinates": [-117.159607, 32.712479]}, "properties": {"name": "Parfait Paris", "category": "coffee", "label": "Bakery"}}, {"type": "Feature", "geometry": {"type": "Point", "coordinates": [-117.172325, 32.714218]}, "properties": {"name": "Philz Coffee", "category": "coffee", "label": "Coffee Shop"}}, {"type": "Feature", "geometry": {"type": "Point", "coordinates": [-117.170868, 32.720776]}, "properties": {"name": "Portal Coffee", "category": "coffee", "label": "Coffee Shop"}}, {"type": "Feature", "geometry": {"type": "Point", "coordinates": [-117.168457, 32.716408]}, "properties": {"name": "Pressed Juicery", "category": "coffee", "label": "Smoothie Juice Bar"}}, {"type": "Feature", "geometry": {"type": "Point", "coordinates": [-117.159454, 32.71336]}, "properties": {"name": "Pushkin Coffee Room", "category": "coffee", "label": "Coffee Shop"}}, {"type": "Feature", "geometry": {"type": "Point", "coordinates": [-117.168739, 32.718403]}, "properties": {"name": "Rich Sips", "category": "coffee", "label": "Coffee Shop"}}, {"type": "Feature", "geometry": {"type": "Point", "coordinates": [-117.153038, 32.71405]}, "properties": {"name": "Rikka Fika", "category": "coffee", "label": "Cafe"}}, {"type": "Feature", "geometry": {"type": "Point", "coordinates": [-117.158936, 32.708778]}, "properties": {"name": "Roast Coach", "category": "coffee", "label": "Coffee Shop"}}, {"type": "Feature", "geometry": {"type": "Point", "coordinates": [-117.158783, 32.717693]}, "properties": {"name": "Robeks Fresh Juices & Smoothies", "category": "coffee", "label": "Smoothie Juice Bar"}}, {"type": "Feature", "geometry": {"type": "Point", "coordinates": [-117.171745, 32.717026]}, "properties": {"name": "Ryan Bros. Coffee", "category": "coffee", "label": "Cafe"}}, {"type": "Feature", "geometry": {"type": "Point", "coordinates": [-117.15863, 32.716599]}, "properties": {"name": "Sammich House Deli & Juice Bar", "category": "coffee", "label": "Smoothie Juice Bar"}}, {"type": "Feature", "geometry": {"type": "Point", "coordinates": [-117.152771, 32.711342]}, "properties": {"name": "Seahorse Coffee", "category": "coffee", "label": "Coffee Shop"}}, {"type": "Feature", "geometry": {"type": "Point", "coordinates": [-117.152702, 32.711346]}, "properties": {"name": "Seahorse Coffee", "category": "coffee", "label": "Coffee Shop"}}, {"type": "Feature", "geometry": {"type": "Point", "coordinates": [-117.163368, 32.719261]}, "properties": {"name": "Sempra Cafeteria", "category": "coffee", "label": "Cafeteria"}}, {"type": "Feature", "geometry": {"type": "Point", "coordinates": [-117.169525, 32.716457]}, "properties": {"name": "Silver Streak Cafe", "category": "coffee", "label": "Cafe"}}, {"type": "Feature", "geometry": {"type": "Point", "coordinates": [-117.164497, 32.711357]}, "properties": {"name": "Skybound Coffee and Dessert Lounge", "category": "coffee", "label": "Coffee Shop"}}, {"type": "Feature", "geometry": {"type": "Point", "coordinates": [-117.156342, 32.709557]}, "properties": {"name": "Sol Cal", "category": "coffee", "label": "Smoothie Juice Bar"}}, {"type": "Feature", "geometry": {"type": "Point", "coordinates": [-117.164215, 32.715115]}, "properties": {"name": "Specialty's Cafe & Bakery", "category": "coffee", "label": "Cafe"}}, {"type": "Feature", "geometry": {"type": "Point", "coordinates": [-117.168831, 32.708729]}, "properties": {"name": "Spill The Beans Coffee and Bagels", "category": "coffee", "label": "Coffee Shop"}}, {"type": "Feature", "geometry": {"type": "Point", "coordinates": [-117.159492, 32.711361]}, "properties": {"name": "Spill the Beans Coffee and Bagels", "category": "coffee", "label": "Coffee Shop"}}, {"type": "Feature", "geometry": {"type": "Point", "coordinates": [-117.167641, 32.7164]}, "properties": {"name": "Spresso", "category": "coffee", "label": "Cafe"}}, {"type": "Feature", "geometry": {"type": "Point", "coordinates": [-117.163368, 32.715351]}, "properties": {"name": "St Tropez Bakery & Bistro", "category": "coffee", "label": "Bakery"}}, {"type": "Feature", "geometry": {"type": "Point", "coordinates": [-117.170685, 32.710968]}, "properties": {"name": "Starbucks", "category": "coffee", "label": "Coffee Shop"}}, {"type": "Feature", "geometry": {"type": "Point", "coordinates": [-117.170547, 32.710346]}, "properties": {"name": "Starbucks", "category": "coffee", "label": "Coffee Shop"}}, {"type": "Feature", "geometry": {"type": "Point", "coordinates": [-117.165504, 32.708469]}, "properties": {"name": "Starbucks", "category": "coffee", "label": "Coffee Shop"}}, {"type": "Feature", "geometry": {"type": "Point", "coordinates": [-117.162506, 32.70591]}, "properties": {"name": "Starbucks", "category": "coffee", "label": "Coffee Shop"}}, {"type": "Feature", "geometry": {"type": "Point", "coordinates": [-117.162651, 32.707504]}, "properties": {"name": "Starbucks", "category": "coffee", "label": "Coffee Shop"}}, {"type": "Feature", "geometry": {"type": "Point", "coordinates": [-117.161331, 32.711426]}, "properties": {"name": "Starbucks", "category": "coffee", "label": "Coffee Shop"}}, {"type": "Feature", "geometry": {"type": "Point", "coordinates": [-117.160019, 32.707764]}, "properties": {"name": "Starbucks", "category": "coffee", "label": "Coffee Shop"}}, {"type": "Feature", "geometry": {"type": "Point", "coordinates": [-117.158463, 32.70377]}, "properties": {"name": "Starbucks", "category": "coffee", "label": "Coffee Shop"}}, {"type": "Feature", "geometry": {"type": "Point", "coordinates": [-117.158188, 32.703259]}, "properties": {"name": "Starbucks", "category": "coffee", "label": "Coffee Shop"}}, {"type": "Feature", "geometry": {"type": "Point", "coordinates": [-117.155396, 32.711437]}, "properties": {"name": "Starbucks", "category": "coffee", "label": "Coffee Shop"}}, {"type": "Feature", "geometry": {"type": "Point", "coordinates": [-117.151566, 32.712055]}, "properties": {"name": "Starbucks", "category": "coffee", "label": "Coffee Shop"}}, {"type": "Feature", "geometry": {"type": "Point", "coordinates": [-117.167641, 32.719963]}, "properties": {"name": "Starbucks", "category": "coffee", "label": "Coffee Shop"}}, {"type": "Feature", "geometry": {"type": "Point", "coordinates": [-117.164627, 32.715908]}, "properties": {"name": "Starbucks", "category": "coffee", "label": "Coffee Shop"}}, {"type": "Feature", "geometry": {"type": "Point", "coordinates": [-117.169052, 32.715878]}, "properties": {"name": "Starbucks", "category": "coffee", "label": "Coffee Shop"}}, {"type": "Feature", "geometry": {"type": "Point", "coordinates": [-117.172218, 32.716614]}, "properties": {"name": "Starbucks", "category": "coffee", "label": "Coffee Shop"}}, {"type": "Feature", "geometry": {"type": "Point", "coordinates": [-117.171997, 32.71632]}, "properties": {"name": "Starbucks", "category": "coffee", "label": "Coffee Shop"}}, {"type": "Feature", "geometry": {"type": "Point", "coordinates": [-117.163368, 32.712532]}, "properties": {"name": "Starbucks", "category": "coffee", "label": "Coffee Shop"}}, {"type": "Feature", "geometry": {"type": "Point", "coordinates": [-117.159821, 32.713619]}, "properties": {"name": "Starbucks", "category": "coffee", "label": "Coffee Shop"}}, {"type": "Feature", "geometry": {"type": "Point", "coordinates": [-117.161331, 32.715214]}, "properties": {"name": "Starbucks", "category": "coffee", "label": "Coffee Shop"}}, {"type": "Feature", "geometry": {"type": "Point", "coordinates": [-117.159378, 32.717678]}, "properties": {"name": "Starbucks", "category": "coffee", "label": "Coffee Shop"}}, {"type": "Feature", "geometry": {"type": "Point", "coordinates": [-117.159447, 32.710701]}, "properties": {"name": "SugarBears Sweet Provisions", "category": "coffee", "label": "Bakery"}}, {"type": "Feature", "geometry": {"type": "Point", "coordinates": [-117.158882, 32.717556]}, "properties": {"name": "Swami's Caf\u00e9 Downtown", "category": "coffee", "label": "Cafe"}}, {"type": "Feature", "geometry": {"type": "Point", "coordinates": [-117.158012, 32.717846]}, "properties": {"name": "Symphony Bistro", "category": "coffee", "label": "Cafe"}}, {"type": "Feature", "geometry": {"type": "Point", "coordinates": [-117.16201, 32.711258]}, "properties": {"name": "Tabac Cafe & Hookah", "category": "coffee", "label": "Cafe"}}, {"type": "Feature", "geometry": {"type": "Point", "coordinates": [-117.152519, 32.709602]}, "properties": {"name": "Tapshack - East Village", "category": "coffee", "label": "Coffee Shop"}}, {"type": "Feature", "geometry": {"type": "Point", "coordinates": [-117.168114, 32.722084]}, "properties": {"name": "Tazza D'Oro", "category": "coffee", "label": "Cafe"}}, {"type": "Feature", "geometry": {"type": "Point", "coordinates": [-117.169418, 32.723812]}, "properties": {"name": "Tea Bazaar", "category": "coffee", "label": "Tea Room"}}, {"type": "Feature", "geometry": {"type": "Point", "coordinates": [-117.162521, 32.713982]}, "properties": {"name": "Teavana", "category": "coffee", "label": "Tea Room"}}, {"type": "Feature", "geometry": {"type": "Point", "coordinates": [-117.171776, 32.709286]}, "properties": {"name": "The Best Donuts", "category": "coffee", "label": "Bakery"}}, {"type": "Feature", "geometry": {"type": "Point", "coordinates": [-117.16188, 32.710518]}, "properties": {"name": "The Cat Cafe", "category": "coffee", "label": "Cafe"}}, {"type": "Feature", "geometry": {"type": "Point", "coordinates": [-117.164185, 32.715797]}, "properties": {"name": "The Coffee Bean & Tea Leaf", "category": "coffee", "label": "Coffee Shop"}}, {"type": "Feature", "geometry": {"type": "Point", "coordinates": [-117.173294, 32.715099]}, "properties": {"name": "The Green Rose Cafe Cart", "category": "coffee", "label": "Coffee Shop"}}, {"type": "Feature", "geometry": {"type": "Point", "coordinates": [-117.156418, 32.711857]}, "properties": {"name": "The Invigatorium", "category": "coffee", "label": "Coffee Shop"}}, {"type": "Feature", "geometry": {"type": "Point", "coordinates": [-117.167908, 32.722988]}, "properties": {"name": "The Mini Donut Company", "category": "coffee", "label": "Donuts"}}, {"type": "Feature", "geometry": {"type": "Point", "coordinates": [-117.167542, 32.718231]}, "properties": {"name": "The Mudbar", "category": "coffee", "label": "Cafe"}}, {"type": "Feature", "geometry": {"type": "Point", "coordinates": [-117.16246, 32.71637]}, "properties": {"name": "The WestBean Coffee Roasters", "category": "coffee", "label": "Coffee Shop"}}, {"type": "Feature", "geometry": {"type": "Point", "coordinates": [-117.161263, 32.711151]}, "properties": {"name": "Tiger Caf\u00e9", "category": "coffee", "label": "Cafe"}}, {"type": "Feature", "geometry": {"type": "Point", "coordinates": [-117.157219, 32.713428]}, "properties": {"name": "Tired Eyes Coffee", "category": "coffee", "label": "Coffee Shop"}}, {"type": "Feature", "geometry": {"type": "Point", "coordinates": [-117.160263, 32.70816]}, "properties": {"name": "Toscana Cafe & Wine Bar", "category": "coffee", "label": "Cafe"}}, {"type": "Feature", "geometry": {"type": "Point", "coordinates": [-117.154922, 32.707657]}, "properties": {"name": "Vega Caffe", "category": "coffee", "label": "Cafe"}}, {"type": "Feature", "geometry": {"type": "Point", "coordinates": [-117.154831, 32.712944]}, "properties": {"name": "Village Cafe", "category": "coffee", "label": "Coffee Shop"}}, {"type": "Feature", "geometry": {"type": "Point", "coordinates": [-117.168724, 32.708824]}, "properties": {"name": "Village Caf\u00e9", "category": "coffee", "label": "Cafe"}}, {"type": "Feature", "geometry": {"type": "Point", "coordinates": [-117.163887, 32.712242]}, "properties": {"name": "Vitality Tap", "category": "coffee", "label": "Smoothie Juice Bar"}}, {"type": "Feature", "geometry": {"type": "Point", "coordinates": [-117.17038, 32.708641]}, "properties": {"name": "Wetzel's Pretzels", "category": "coffee", "label": "Bakery"}}, {"type": "Feature", "geometry": {"type": "Point", "coordinates": [-117.160858, 32.713413]}, "properties": {"name": "2B by 2GOOD2B", "category": "food", "label": "American Restaurant"}}, {"type": "Feature", "geometry": {"type": "Point", "coordinates": [-117.155678, 32.707352]}, "properties": {"name": "394", "category": "food", "label": "American Restaurant"}}, {"type": "Feature", "geometry": {"type": "Point", "coordinates": [-117.159439, 32.713596]}, "properties": {"name": "474 Broadway", "category": "food", "label": "Restaurant"}}, {"type": "Feature", "geometry": {"type": "Point", "coordinates": [-117.155342, 32.715988]}, "properties": {"name": "55 Thai Kitchen", "category": "food", "label": "Noodles Restaurant"}}, {"type": "Feature", "geometry": {"type": "Point", "coordinates": [-117.155884, 32.711197]}, "properties": {"name": "8026 - Nekter Juice Bar", "category": "food", "label": "Fast Food Restaurant"}}, {"type": "Feature", "geometry": {"type": "Point", "coordinates": [-117.160927, 32.716568]}, "properties": {"name": "A Brooklyn Pizza", "category": "food", "label": "Pizza Restaurant"}}, {"type": "Feature", "geometry": {"type": "Point", "coordinates": [-117.160881, 32.716568]}, "properties": {"name": "A Brooklyn Pizzeria", "category": "food", "label": "Pizza Restaurant"}}, {"type": "Feature", "geometry": {"type": "Point", "coordinates": [-117.155312, 32.715977]}, "properties": {"name": "A's Pizza And Grill", "category": "food", "label": "Pizza Restaurant"}}, {"type": "Feature", "geometry": {"type": "Point", "coordinates": [-117.168083, 32.7155]}, "properties": {"name": "A+ Produce Inc.", "category": "food", "label": "Food"}}, {"type": "Feature", "geometry": {"type": "Point", "coordinates": [-117.169266, 32.717934]}, "properties": {"name": "Aaharn", "category": "food", "label": "Thai Restaurant"}}, {"type": "Feature", "geometry": {"type": "Point", "coordinates": [-117.169479, 32.717995]}, "properties": {"name": "Aaharn by Koon Thai", "category": "food", "label": "Thai Restaurant"}}, {"type": "Feature", "geometry": {"type": "Point", "coordinates": [-117.156235, 32.714504]}, "properties": {"name": "Acme Southern Kitchen", "category": "food", "label": "Comfort Food Restaurant"}}, {"type": "Feature", "geometry": {"type": "Point", "coordinates": [-117.160172, 32.708775]}, "properties": {"name": "Acqua al 2 Ristorante", "category": "food", "label": "Italian Restaurant"}}, {"type": "Feature", "geometry": {"type": "Point", "coordinates": [-117.159492, 32.713493]}, "properties": {"name": "Admiral's Experience", "category": "food", "label": "Food Beverage Service Distribution"}}, {"type": "Feature", "geometry": {"type": "Point", "coordinates": [-117.173538, 32.723606]}, "properties": {"name": "Adventure Hornblo", "category": "food", "label": "Restaurant"}}, {"type": "Feature", "geometry": {"type": "Point", "coordinates": [-117.156937, 32.711208]}, "properties": {"name": "Adventures In San Diego", "category": "food", "label": "Food"}}, {"type": "Feature", "geometry": {"type": "Point", "coordinates": [-117.162598, 32.716351]}, "properties": {"name": "Afternoon Tea At The Westgate Hotel", "category": "food", "label": "Restaurant"}}, {"type": "Feature", "geometry": {"type": "Point", "coordinates": [-117.158997, 32.717381]}, "properties": {"name": "Ai Sushi & Teriyaki", "category": "food", "label": "Asian Restaurant"}}, {"type": "Feature", "geometry": {"type": "Point", "coordinates": [-117.159348, 32.711597]}, "properties": {"name": "Airr Supper Club & Nightclub", "category": "food", "label": "American Restaurant"}}, {"type": "Feature", "geometry": {"type": "Point", "coordinates": [-117.160027, 32.713158]}, "properties": {"name": "Alambres Mexican Grill", "category": "food", "label": "Mexican Restaurant"}}, {"type": "Feature", "geometry": {"type": "Point", "coordinates": [-117.159645, 32.719379]}, "properties": {"name": "Alamilla's Mexican Food", "category": "food", "label": "Mexican Restaurant"}}, {"type": "Feature", "geometry": {"type": "Point", "coordinates": [-117.159142, 32.717316]}, "properties": {"name": "Ali's Chicken & Waffles", "category": "food", "label": "American Restaurant"}}, {"type": "Feature", "geometry": {"type": "Point", "coordinates": [-117.168449, 32.721737]}, "properties": {"name": "Allegro Restaurant and Bar", "category": "food", "label": "Italian Restaurant"}}, {"type": "Feature", "geometry": {"type": "Point", "coordinates": [-117.160873, 32.713959]}, "properties": {"name": "Allure Restaurant", "category": "food", "label": "Restaurant"}}, {"type": "Feature", "geometry": {"type": "Point", "coordinates": [-117.15213, 32.711243]}, "properties": {"name": "Alpha Pizzeria", "category": "food", "label": "Pizza Restaurant"}}, {"type": "Feature", "geometry": {"type": "Point", "coordinates": [-117.156487, 32.709633]}, "properties": {"name": "Amazon Locker - Cara", "category": "food", "label": "Courier And Delivery Services"}}, {"type": "Feature", "geometry": {"type": "Point", "coordinates": [-117.167702, 32.723095]}, "properties": {"name": "Ambrogio15", "category": "food", "label": "Pizza Restaurant"}}, {"type": "Feature", "geometry": {"type": "Point", "coordinates": [-117.163742, 32.721149]}, "properties": {"name": "Ancora", "category": "food", "label": "Mediterranean Restaurant"}}, {"type": "Feature", "geometry": {"type": "Point", "coordinates": [-117.153984, 32.713089]}, "properties": {"name": "Angry Petes Pizza", "category": "food", "label": "Restaurant"}}, {"type": "Feature", "geometry": {"type": "Point", "coordinates": [-117.170769, 32.715145]}, "properties": {"name": "Animae", "category": "food", "label": "Steakhouse"}}, {"type": "Feature", "geometry": {"type": "Point", "coordinates": [-117.166946, 32.71854]}, "properties": {"name": "Appetite", "category": "food", "label": "Restaurant"}}, {"type": "Feature", "geometry": {"type": "Point", "coordinates": [-117.160362, 32.712978]}, "properties": {"name": "Aqua. Blu", "category": "food", "label": "Restaurant"}}, {"type": "Feature", "geometry": {"type": "Point", "coordinates": [-117.172173, 32.710163]}, "properties": {"name": "Aquamarine Seafood Brokerage", "category": "food", "label": "Food"}}, {"type": "Feature", "geometry": {"type": "Point", "coordinates": [-117.171867, 32.709354]}, "properties": {"name": "Asaggio Pizza Pasta Plus", "category": "food", "label": "Pizza Restaurant"}}, {"type": "Feature", "geometry": {"type": "Point", "coordinates": [-117.160217, 32.712959]}, "properties": {"name": "Asti Ristorante", "category": "food", "label": "Italian Restaurant"}}, {"type": "Feature", "geometry": {"type": "Point", "coordinates": [-117.164085, 32.713306]}, "properties": {"name": "Athens Market Taverna", "category": "food", "label": "Greek Restaurant"}}, {"type": "Feature", "geometry": {"type": "Point", "coordinates": [-117.164169, 32.713509]}, "properties": {"name": "Athens Market Taverna", "category": "food", "label": "Greek Restaurant"}}, {"type": "Feature", "geometry": {"type": "Point", "coordinates": [-117.161255, 32.710606]}, "properties": {"name": "Aubergine", "category": "food", "label": "Restaurant"}}, {"type": "Feature", "geometry": {"type": "Point", "coordinates": [-117.16143, 32.706619]}, "properties": {"name": "Auntie Anne's San Diego Convention Center", "category": "food", "label": "Fast Food Restaurant"}}, {"type": "Feature", "geometry": {"type": "Point", "coordinates": [-117.150078, 32.712273]}, "properties": {"name": "Aztec Appliance Outlet Center", "category": "food", "label": "Kitchen Supply Store"}}, {"type": "Feature", "geometry": {"type": "Point", "coordinates": [-117.153656, 32.711285]}, "properties": {"name": "Azteca Taco Shop", "category": "food", "label": "Taco Restaurant"}}, {"type": "Feature", "geometry": {"type": "Point", "coordinates": [-117.1595, 32.70713]}, "properties": {"name": "Baja Rick's Cantina", "category": "food", "label": "Mexican Restaurant"}}, {"type": "Feature", "geometry": {"type": "Point", "coordinates": [-117.160835, 32.71423]}, "properties": {"name": "Bandar Restaurant", "category": "food", "label": "Persian Iranian Restaurant"}}, {"type": "Feature", "geometry": {"type": "Point", "coordinates": [-117.159515, 32.711742]}, "properties": {"name": "Bang Bang - San Diego", "category": "food", "label": "Japanese Restaurant"}}, {"type": "Feature", "geometry": {"type": "Point", "coordinates": [-117.159103, 32.714676]}, "properties": {"name": "Bare Back Grill", "category": "food", "label": "Burger Restaurant"}}, {"type": "Feature", "geometry": {"type": "Point", "coordinates": [-117.155846, 32.709576]}, "properties": {"name": "Basic Bar & Pizza", "category": "food", "label": "Pizza Restaurant"}}, {"type": "Feature", "geometry": {"type": "Point", "coordinates": [-117.154755, 32.706463]}, "properties": {"name": "Basic Bar & Pizza", "category": "food", "label": "Pizza Restaurant"}}, {"type": "Feature", "geometry": {"type": "Point", "coordinates": [-117.170471, 32.711662]}, "properties": {"name": "Baskin-Robbins", "category": "food", "label": "Ice Cream Shop"}}, {"type": "Feature", "geometry": {"type": "Point", "coordinates": [-117.160141, 32.719189]}, "properties": {"name": "BB's Deli", "category": "food", "label": "Delicatessen"}}, {"type": "Feature", "geometry": {"type": "Point", "coordinates": [-117.172302, 32.716942]}, "properties": {"name": "Beach Hut Deli", "category": "food", "label": "Delicatessen"}}, {"type": "Feature", "geometry": {"type": "Point", "coordinates": [-117.171516, 32.709244]}, "properties": {"name": "Ben & Jerry's", "category": "food", "label": "Ice Cream Shop"}}, {"type": "Feature", "geometry": {"type": "Point", "coordinates": [-117.161087, 32.714424]}, "properties": {"name": "Ben & Jerry's", "category": "food", "label": "Ice Cream And Frozen Yoghurt"}}, {"type": "Feature", "geometry": {"type": "Point", "coordinates": [-117.159813, 32.710407]}, "properties": {"name": "Berkeley Pizza", "category": "food", "label": "Pizza Restaurant"}}, {"type": "Feature", "geometry": {"type": "Point", "coordinates": [-117.153076, 32.711643]}, "properties": {"name": "BESHOCK Ramen East Village", "category": "food", "label": "Japanese Restaurant"}}, {"type": "Feature", "geometry": {"type": "Point", "coordinates": [-117.157623, 32.711712]}, "properties": {"name": "Besthibachi", "category": "food", "label": "Restaurant"}}, {"type": "Feature", "geometry": {"type": "Point", "coordinates": [-117.160988, 32.710327]}, "properties": {"name": "Bice", "category": "food", "label": "Italian Restaurant"}}, {"type": "Feature", "geometry": {"type": "Point", "coordinates": [-117.160736, 32.710388]}, "properties": {"name": "BiCE Ristorante", "category": "food", "label": "Vegetarian Restaurant"}}, {"type": "Feature", "geometry": {"type": "Point", "coordinates": [-117.157028, 32.713459]}, "properties": {"name": "Big Thyme Sandwich Company", "category": "food", "label": "Sandwich Shop"}}, {"type": "Feature", "geometry": {"type": "Point", "coordinates": [-117.16877, 32.715946]}, "properties": {"name": "Bitcoin Pizza - Core-columbia", "category": "food", "label": "Pizza Restaurant"}}, {"type": "Feature", "geometry": {"type": "Point", "coordinates": [-117.157051, 32.706902]}, "properties": {"name": "Blue Shield Home Plate Club Restaurant", "category": "food", "label": "American Restaurant"}}, {"type": "Feature", "geometry": {"type": "Point", "coordinates": [-117.155777, 32.706947]}, "properties": {"name": "Blue Water Seafood Market and Grill", "category": "food", "label": "Seafood Restaurant"}}, {"type": "Feature", "geometry": {"type": "Point", "coordinates": [-117.159508, 32.711292]}, "properties": {"name": "Blush Ice Bar + East-West Kitchen", "category": "food", "label": "American Restaurant"}}, {"type": "Feature", "geometry": {"type": "Point", "coordinates": [-117.156433, 32.706657]}, "properties": {"name": "Board & Brew", "category": "food", "label": "Sandwich Shop"}}, {"type": "Feature", "geometry": {"type": "Point", "coordinates": [-117.153923, 32.713249]}, "properties": {"name": "Bol", "category": "food", "label": "Restaurant"}}, {"type": "Feature", "geometry": {"type": "Point", "coordinates": [-117.162346, 32.713619]}, "properties": {"name": "Boloco", "category": "food", "label": "Fast Food Restaurant"}}, {"type": "Feature", "geometry": {"type": "Point", "coordinates": [-117.159836, 32.708656]}, "properties": {"name": "Bondi", "category": "food", "label": "Australian Restaurant"}}, {"type": "Feature", "geometry": {"type": "Point", "coordinates": [-117.160805, 32.714062]}, "properties": {"name": "Bottega", "category": "food", "label": "Restaurant"}}, {"type": "Feature", "geometry": {"type": "Point", "coordinates": [-117.153976, 32.710278]}, "properties": {"name": "Bottega Americano", "category": "food", "label": "Restaurant"}}, {"type": "Feature", "geometry": {"type": "Point", "coordinates": [-117.169159, 32.720806]}, "properties": {"name": "Bracero", "category": "food", "label": "Mexican Restaurant"}}, {"type": "Feature", "geometry": {"type": "Point", "coordinates": [-117.150063, 32.709579]}, "properties": {"name": "Bread & Cheese Eatery", "category": "food", "label": "Sandwich Shop"}}, {"type": "Feature", "geometry": {"type": "Point", "coordinates": [-117.158142, 32.712505]}, "properties": {"name": "Breakfast Republic", "category": "food", "label": "Breakfast And Brunch Restaurant"}}, {"type": "Feature", "geometry": {"type": "Point", "coordinates": [-117.162498, 32.715179]}, "properties": {"name": "Brent (sub) and Jose's Tacos And Toast", "category": "food", "label": "Restaurant"}}, {"type": "Feature", "geometry": {"type": "Point", "coordinates": [-117.173515, 32.719601]}, "properties": {"name": "Brigantine Seafood & Oyster Bar", "category": "food", "label": "Seafood Restaurant"}}, {"type": "Feature", "geometry": {"type": "Point", "coordinates": [-117.155388, 32.715942]}, "properties": {"name": "Broadway Pizza & Grill", "category": "food", "label": "Chicken Wings Restaurant"}}, {"type": "Feature", "geometry": {"type": "Point", "coordinates": [-117.159065, 32.709064]}, "properties": {"name": "Broken Yolk Cafe", "category": "food", "label": "Breakfast And Brunch Restaurant"}}, {"type": "Feature", "geometry": {"type": "Point", "coordinates": [-117.1632, 32.71447]}, "properties": {"name": "Bronze Bird", "category": "food", "label": "Restaurant"}}, {"type": "Feature", "geometry": {"type": "Point", "coordinates": [-117.155121, 32.710838]}, "properties": {"name": "Brooklyn Bagel Company", "category": "food", "label": "Sandwich Shop"}}, {"type": "Feature", "geometry": {"type": "Point", "coordinates": [-117.162521, 32.717907]}, "properties": {"name": "Brooklyn Dogs", "category": "food", "label": "Hot Dog Restaurant"}}, {"type": "Feature", "geometry": {"type": "Point", "coordinates": [-117.158012, 32.709038]}, "properties": {"name": "Bubs Sports Bar San Diego Gaslamp", "category": "food", "label": "Restaurant"}}, {"type": "Feature", "geometry": {"type": "Point", "coordinates": [-117.160622, 32.709457]}, "properties": {"name": "Buca di Beppo", "category": "food", "label": "Italian Restaurant"}}, {"type": "Feature", "geometry": {"type": "Point", "coordinates": [-117.160667, 32.709538]}, "properties": {"name": "Buca di Beppo", "category": "food", "label": "Italian Restaurant"}}, {"type": "Feature", "geometry": {"type": "Point", "coordinates": [-117.156021, 32.708473]}, "properties": {"name": "Bumble Bee Seafoods", "category": "food", "label": "Food Beverage Service Distribution"}}, {"type": "Feature", "geometry": {"type": "Point", "coordinates": [-117.168205, 32.72242]}, "properties": {"name": "Buon Appetito Restaurant", "category": "food", "label": "Italian Restaurant"}}, {"type": "Feature", "geometry": {"type": "Point", "coordinates": [-117.154839, 32.718021]}, "properties": {"name": "Burger King", "category": "food", "label": "Burger Restaurant"}}, {"type": "Feature", "geometry": {"type": "Point", "coordinates": [-117.168411, 32.722134]}, "properties": {"name": "Burger Lounge", "category": "food", "label": "Burger Restaurant"}}, {"type": "Feature", "geometry": {"type": "Point", "coordinates": [-117.168106, 32.72348]}, "properties": {"name": "Busalacchi Restaurants", "category": "food", "label": "Italian Restaurant"}}, {"type": "Feature", "geometry": {"type": "Point", "coordinates": [-117.160477, 32.713753]}, "properties": {"name": "Cafe 21 Gaslamp", "category": "food", "label": "Breakfast And Brunch Restaurant"}}, {"type": "Feature", "geometry": {"type": "Point", "coordinates": [-117.162659, 32.710728]}, "properties": {"name": "Cafe 222", "category": "food", "label": "Breakfast And Brunch Restaurant"}}, {"type": "Feature", "geometry": {"type": "Point", "coordinates": [-117.167671, 32.721504]}, "properties": {"name": "Cafe Guadalajara", "category": "food", "label": "Restaurant"}}, {"type": "Feature", "geometry": {"type": "Point", "coordinates": [-117.158974, 32.714924]}, "properties": {"name": "Cafe Istanbul", "category": "food", "label": "Turkish Restaurant"}}, {"type": "Feature", "geometry": {"type": "Point", "coordinates": [-117.168282, 32.723488]}, "properties": {"name": "Cafe Zucchero", "category": "food", "label": "Italian Restaurant"}}, {"type": "Feature", "geometry": {"type": "Point", "coordinates": [-117.16954, 32.718231]}, "properties": {"name": "CalExpress", "category": "food", "label": "Food Delivery Service"}}, {"type": "Feature", "geometry": {"type": "Point", "coordinates": [-117.158226, 32.720058]}, "properties": {"name": "Cali Breakfast", "category": "food", "label": "Breakfast And Brunch Restaurant"}}, {"type": "Feature", "geometry": {"type": "Point", "coordinates": [-117.1605, 32.711376]}, "properties": {"name": "Cali Cream Homemade Ice Cream", "category": "food", "label": "Ice Cream Shop"}}, {"type": "Feature", "geometry": {"type": "Point", "coordinates": [-117.166946, 32.715755]}, "properties": {"name": "California Courier Services", "category": "food", "label": "Courier And Delivery Services"}}, {"type": "Feature", "geometry": {"type": "Point", "coordinates": [-117.159904, 32.712887]}, "properties": {"name": "California Grinders", "category": "food", "label": "Sandwich Shop"}}, {"type": "Feature", "geometry": {"type": "Point", "coordinates": [-117.154015, 32.710308]}, "properties": {"name": "Callie", "category": "food", "label": "Mediterranean Restaurant"}}, {"type": "Feature", "geometry": {"type": "Point", "coordinates": [-117.1623, 32.709522]}, "properties": {"name": "Candelas Contemporary Cuisine", "category": "food", "label": "Restaurant"}}, {"type": "Feature", "geometry": {"type": "Point", "coordinates": [-117.152611, 32.711365]}, "properties": {"name": "Canteen", "category": "food", "label": "Burger Restaurant"}}, {"type": "Feature", "geometry": {"type": "Point", "coordinates": [-117.155914, 32.71756]}, "properties": {"name": "Capri 925 B Street", "category": "food", "label": "Latin American Restaurant"}}, {"type": "Feature", "geometry": {"type": "Point", "coordinates": [-117.164146, 32.720322]}, "properties": {"name": "Caps Pizza & Bar", "category": "food", "label": "Pizza Restaurant"}}, {"type": "Feature", "geometry": {"type": "Point", "coordinates": [-117.154259, 32.707054]}, "properties": {"name": "Carmelita's Kitchen De Mexico", "category": "food", "label": "Mexican Restaurant"}}, {"type": "Feature", "geometry": {"type": "Point", "coordinates": [-117.160217, 32.708626]}, "properties": {"name": "Carne Prima Italian Steakhouse", "category": "food", "label": "Steakhouse"}}, {"type": "Feature", "geometry": {"type": "Point", "coordinates": [-117.159554, 32.715591]}, "properties": {"name": "Carnes Asadas Bravo", "category": "food", "label": "Mexican Restaurant"}}, {"type": "Feature", "geometry": {"type": "Point", "coordinates": [-117.17318, 32.716328]}, "properties": {"name": "Carnitas Snack Shack", "category": "food", "label": "Mexican Restaurant"}}, {"type": "Feature", "geometry": {"type": "Point", "coordinates": [-117.157799, 32.707848]}, "properties": {"name": "Carnitas' Snack Shack at Petco Park", "category": "food", "label": "Comfort Food Restaurant"}}, {"type": "Feature", "geometry": {"type": "Point", "coordinates": [-117.168816, 32.717846]}, "properties": {"name": "Carnivore Sandwich", "category": "food", "label": "Delicatessen"}}, {"type": "Feature", "geometry": {"type": "Point", "coordinates": [-117.155838, 32.709332]}, "properties": {"name": "Casa Octavio", "category": "food", "label": "Mexican Restaurant"}}, {"type": "Feature", "geometry": {"type": "Point", "coordinates": [-117.168106, 32.723782]}, "properties": {"name": "Cash & Carry Italian Foods", "category": "food", "label": "Italian Restaurant"}}, {"type": "Feature", "geometry": {"type": "Point", "coordinates": [-117.165169, 32.716042]}, "properties": {"name": "CAVA", "category": "food", "label": "Mediterranean Restaurant"}}, {"type": "Feature", "geometry": {"type": "Point", "coordinates": [-117.160393, 32.708767]}, "properties": {"name": "Cerveza Jack's Gaslamp", "category": "food", "label": "Comfort Food Restaurant"}}, {"type": "Feature", "geometry": {"type": "Point", "coordinates": [-117.159935, 32.71067]}, "properties": {"name": "Cesar Restaurant Lounge", "category": "food", "label": "Caribbean Restaurant"}}, {"type": "Feature", "geometry": {"type": "Point", "coordinates": [-117.156097, 32.711681]}, "properties": {"name": "Champion Lanes", "category": "food", "label": "Restaurant"}}, {"type": "Feature", "geometry": {"type": "Point", "coordinates": [-117.155792, 32.717632]}, "properties": {"name": "Chaplos Restaurant & Bar", "category": "food", "label": "American Restaurant"}}, {"type": "Feature", "geometry": {"type": "Point", "coordinates": [-117.160835, 32.711956]}, "properties": {"name": "Cheese Shop", "category": "food", "label": "Sandwich Shop"}}, {"type": "Feature", "geometry": {"type": "Point", "coordinates": [-117.158691, 32.716499]}, "properties": {"name": "Chef Miguel's Deli", "category": "food", "label": "Sandwich Shop"}}, {"type": "Feature", "geometry": {"type": "Point", "coordinates": [-117.171944, 32.710178]}, "properties": {"name": "Chesapeake Fish Company", "category": "food", "label": "Seafood Restaurant"}}, {"type": "Feature", "geometry": {"type": "Point", "coordinates": [-117.153595, 32.711449]}, "properties": {"name": "Chicken King", "category": "food", "label": "Fast Food Restaurant"}}, {"type": "Feature", "geometry": {"type": "Point", "coordinates": [-117.156174, 32.709564]}, "properties": {"name": "Chick\u2019nCone", "category": "food", "label": "Chicken Restaurant"}}, {"type": "Feature", "geometry": {"type": "Point", "coordinates": [-117.164246, 32.715309]}, "properties": {"name": "Chipotle Mexican Grill", "category": "food", "label": "Mexican Restaurant"}}, {"type": "Feature", "geometry": {"type": "Point", "coordinates": [-117.161331, 32.711113]}, "properties": {"name": "Chives", "category": "food", "label": "Restaurant"}}, {"type": "Feature", "geometry": {"type": "Point", "coordinates": [-117.159988, 32.710632]}, "properties": {"name": "Chocolat Cremerie", "category": "food", "label": "Ice Cream Shop"}}, {"type": "Feature", "geometry": {"type": "Point", "coordinates": [-117.154854, 32.707127]}, "properties": {"name": "Choi's", "category": "food", "label": "Asian Fusion Restaurant"}}, {"type": "Feature", "geometry": {"type": "Point", "coordinates": [-117.159454, 32.713375]}, "properties": {"name": "Chopahn Authentic Afghan Cuisine", "category": "food", "label": "Afghan Restaurant"}}, {"type": "Feature", "geometry": {"type": "Point", "coordinates": [-117.161484, 32.715267]}, "properties": {"name": "Cinnabon", "category": "food", "label": "Restaurant"}}, {"type": "Feature", "geometry": {"type": "Point", "coordinates": [-117.159798, 32.711502]}, "properties": {"name": "Ciro's Pizzeria", "category": "food", "label": "Pizza Restaurant"}}, {"type": "Feature", "geometry": {"type": "Point", "coordinates": [-117.159462, 32.711784]}, "properties": {"name": "Ciros Pizzeria & Beerhouse", "category": "food", "label": "Pizza Restaurant"}}, {"type": "Feature", "geometry": {"type": "Point", "coordinates": [-117.158882, 32.717556]}, "properties": {"name": "City Pizzeria", "category": "food", "label": "Pizza Delivery Service"}}, {"type": "Feature", "geometry": {"type": "Point", "coordinates": [-117.172615, 32.719486]}, "properties": {"name": "Claim Jumper Steakhouse & Bar", "category": "food", "label": "American Restaurant"}}, {"type": "Feature", "geometry": {"type": "Point", "coordinates": [-117.160805, 32.716591]}, "properties": {"name": "Coal Bros Taqueria", "category": "food", "label": "Taco Restaurant"}}, {"type": "Feature", "geometry": {"type": "Point", "coordinates": [-117.160469, 32.714474]}, "properties": {"name": "Coastal Cantina", "category": "food", "label": "Mexican Restaurant"}}, {"type": "Feature", "geometry": {"type": "Point", "coordinates": [-117.154327, 32.713779]}, "properties": {"name": "Cobblestone Delicatessen", "category": "food", "label": "Delicatessen"}}, {"type": "Feature", "geometry": {"type": "Point", "coordinates": [-117.15921, 32.720284]}, "properties": {"name": "Cocina 35", "category": "food", "label": "Mexican Restaurant"}}, {"type": "Feature", "geometry": {"type": "Point", "coordinates": [-117.156914, 32.7076]}, "properties": {"name": "CoCo Ichibanya", "category": "food", "label": "Restaurant"}}, {"type": "Feature", "geometry": {"type": "Point", "coordinates": [-117.168449, 32.722797]}, "properties": {"name": "Coco Maya by Miss B's", "category": "food", "label": "American Restaurant"}}, {"type": "Feature", "geometry": {"type": "Point", "coordinates": [-117.155418, 32.708775]}, "properties": {"name": "Como Ceviche", "category": "food", "label": "Seafood Restaurant"}}, {"type": "Feature", "geometry": {"type": "Point", "coordinates": [-117.158745, 32.708321]}, "properties": {"name": "Cookie Plug", "category": "food", "label": "Restaurant"}}, {"type": "Feature", "geometry": {"type": "Point", "coordinates": [-117.159157, 32.717602]}, "properties": {"name": "Corner Kitchen Pizzeria", "category": "food", "label": "Mediterranean Restaurant"}}, {"type": "Feature", "geometry": {"type": "Point", "coordinates": [-117.160286, 32.712128]}, "properties": {"name": "Corvette Diner Bar & Grill", "category": "food", "label": "Diner"}}, {"type": "Feature", "geometry": {"type": "Point", "coordinates": [-117.167839, 32.71513]}, "properties": {"name": "Cozymeal", "category": "food", "label": "Restaurant"}}, {"type": "Feature", "geometry": {"type": "Point", "coordinates": [-117.159874, 32.715801]}, "properties": {"name": "Crab Hut", "category": "food", "label": "Seafood Restaurant"}}, {"type": "Feature", "geometry": {"type": "Point", "coordinates": [-117.168869, 32.720776]}, "properties": {"name": "Craft & Commerce", "category": "food", "label": "Restaurant"}}, {"type": "Feature", "geometry": {"type": "Point", "coordinates": [-117.169029, 32.722816]}, "properties": {"name": "Crepes Bonaparte", "category": "food", "label": "Food Truck"}}, {"type": "Feature", "geometry": {"type": "Point", "coordinates": [-117.168404, 32.722347]}, "properties": {"name": "Crudo Ceviche and Oyster Bar", "category": "food", "label": "Seafood Restaurant"}}, {"type": "Feature", "geometry": {"type": "Point", "coordinates": [-117.15892, 32.708305]}, "properties": {"name": "Crunchtime Popcorn Ice Cream Hot Dogs And More", "category": "food", "label": "Ice Cream Shop"}}, {"type": "Feature", "geometry": {"type": "Point", "coordinates": [-117.159836, 32.71619]}, "properties": {"name": "Curadero", "category": "food", "label": "Mexican Restaurant"}}, {"type": "Feature", "geometry": {"type": "Point", "coordinates": [-117.166359, 32.715878]}, "properties": {"name": "Dara Thai Cuisine", "category": "food", "label": "Thai Restaurant"}}, {"type": "Feature", "geometry": {"type": "Point", "coordinates": [-117.1604, 32.721703]}, "properties": {"name": "Darband", "category": "food", "label": "Persian Iranian Restaurant"}}, {"type": "Feature", "geometry": {"type": "Point", "coordinates": [-117.169365, 32.720459]}, "properties": {"name": "Darband Persian Grill", "category": "food", "label": "Persian Iranian Restaurant"}}, {"type": "Feature", "geometry": {"type": "Point", "coordinates": [-117.168129, 32.72271]}, "properties": {"name": "Davanti Enoteca Little Italy", "category": "food", "label": "Italian Restaurant"}}, {"type": "Feature", "geometry": {"type": "Point", "coordinates": [-117.159531, 32.712879]}, "properties": {"name": "Day N Nite Sd", "category": "food", "label": "Restaurant"}}, {"type": "Feature", "geometry": {"type": "Point", "coordinates": [-117.156349, 32.712715]}, "properties": {"name": "Decore", "category": "food", "label": "Restaurant"}}, {"type": "Feature", "geometry": {"type": "Point", "coordinates": [-117.154533, 32.717644]}, "properties": {"name": "Del Taco", "category": "food", "label": "Fast Food Restaurant"}}, {"type": "Feature", "geometry": {"type": "Point", "coordinates": [-117.160255, 32.708649]}, "properties": {"name": "Diwali Dining", "category": "food", "label": "Indian Restaurant"}}, {"type": "Feature", "geometry": {"type": "Point", "coordinates": [-117.167831, 32.720654]}, "properties": {"name": "DixiePops", "category": "food", "label": "Ice Cream Shop"}}, {"type": "Feature", "geometry": {"type": "Point", "coordinates": [-117.158165, 32.707333]}, "properties": {"name": "DNC Sportservice", "category": "food", "label": "Food Beverage Service Distribution"}}, {"type": "Feature", "geometry": {"type": "Point", "coordinates": [-117.171974, 32.709415]}, "properties": {"name": "Dockside Fish", "category": "food", "label": "Seafood Restaurant"}}, {"type": "Feature", "geometry": {"type": "Point", "coordinates": [-117.152481, 32.709324]}, "properties": {"name": "Doggos Gus", "category": "food", "label": "Hot Dog Restaurant"}}, {"type": "Feature", "geometry": {"type": "Point", "coordinates": [-117.158943, 32.710571]}, "properties": {"name": "Dogos el Yaqui", "category": "food", "label": "Mexican Restaurant"}}, {"type": "Feature", "geometry": {"type": "Point", "coordinates": [-117.159431, 32.719734]}, "properties": {"name": "Domino's", "category": "food", "label": "Pizza Restaurant"}}, {"type": "Feature", "geometry": {"type": "Point", "coordinates": [-117.160088, 32.710743]}, "properties": {"name": "Don Chido", "category": "food", "label": "Mexican Restaurant"}}, {"type": "Feature", "geometry": {"type": "Point", "coordinates": [-117.159935, 32.714073]}, "properties": {"name": "Doner Mediterranean Grill", "category": "food", "label": "Mediterranean Restaurant"}}, {"type": "Feature", "geometry": {"type": "Point", "coordinates": [-117.159554, 32.708473]}, "properties": {"name": "Donovan's Steak And Chop House", "category": "food", "label": "Steakhouse"}}, {"type": "Feature", "geometry": {"type": "Point", "coordinates": [-117.164543, 32.712379]}, "properties": {"name": "Double Dippin", "category": "food", "label": "Food Beverage Service Distribution"}}, {"type": "Feature", "geometry": {"type": "Point", "coordinates": [-117.159218, 32.712421]}, "properties": {"name": "Double Standard Kitchenette", "category": "food", "label": "Italian Restaurant"}}, {"type": "Feature", "geometry": {"type": "Point", "coordinates": [-117.160904, 32.715134]}, "properties": {"name": "Downtown Sushi", "category": "food", "label": "Sushi Restaurant"}}, {"type": "Feature", "geometry": {"type": "Point", "coordinates": [-117.155624, 32.708431]}, "properties": {"name": "Dragon's Den", "category": "food", "label": "Sushi Restaurant"}}, {"type": "Feature", "geometry": {"type": "Point", "coordinates": [-117.160835, 32.709522]}, "properties": {"name": "Du-par's Restaurant & Bakery", "category": "food", "label": "Diner"}}, {"type": "Feature", "geometry": {"type": "Point", "coordinates": [-117.162888, 32.712452]}, "properties": {"name": "Duke of Soup", "category": "food", "label": "Food"}}, {"type": "Feature", "geometry": {"type": "Point", "coordinates": [-117.160133, 32.713982]}, "properties": {"name": "D\u00f6ner Mediterranean Grill", "category": "food", "label": "Mediterranean Restaurant"}}, {"type": "Feature", "geometry": {"type": "Point", "coordinates": [-117.160812, 32.714951]}, "properties": {"name": "E Street Alley", "category": "food", "label": "Restaurant"}}, {"type": "Feature", "geometry": {"type": "Point", "coordinates": [-117.159882, 32.715889]}, "properties": {"name": "Eat Clean Meal Prep", "category": "food", "label": "Food Beverage Service Distribution"}}, {"type": "Feature", "geometry": {"type": "Point", "coordinates": [-117.17067, 32.710491]}, "properties": {"name": "Eddie V's Prime Seafood", "category": "food", "label": "Seafood Restaurant"}}, {"type": "Feature", "geometry": {"type": "Point", "coordinates": [-117.163979, 32.718964]}, "properties": {"name": "Eddie V's Prime Seafood", "category": "food", "label": "Seafood Restaurant"}}, {"type": "Feature", "geometry": {"type": "Point", "coordinates": [-117.171425, 32.70874]}, "properties": {"name": "Edgewater Grill", "category": "food", "label": "Seafood Restaurant"}}, {"type": "Feature", "geometry": {"type": "Point", "coordinates": [-117.170227, 32.709209]}, "properties": {"name": "Edgewater Grill", "category": "food", "label": "Seafood Restaurant"}}, {"type": "Feature", "geometry": {"type": "Point", "coordinates": [-117.157982, 32.712421]}, "properties": {"name": "Eggies", "category": "food", "label": "Breakfast And Brunch Restaurant"}}, {"type": "Feature", "geometry": {"type": "Point", "coordinates": [-117.160294, 32.711185]}, "properties": {"name": "El Chingon", "category": "food", "label": "Mexican Restaurant"}}, {"type": "Feature", "geometry": {"type": "Point", "coordinates": [-117.15535, 32.70863]}, "properties": {"name": "El Puerto Seafood by the Park", "category": "food", "label": "Seafood Restaurant"}}, {"type": "Feature", "geometry": {"type": "Point", "coordinates": [-117.15509, 32.708847]}, "properties": {"name": "El Puerto Seafood By The Park", "category": "food", "label": "Mexican Restaurant"}}, {"type": "Feature", "geometry": {"type": "Point", "coordinates": [-117.157074, 32.716728]}, "properties": {"name": "Empanada Kitchen", "category": "food", "label": "Argentine Restaurant"}}, {"type": "Feature", "geometry": {"type": "Point", "coordinates": [-117.168526, 32.721497]}, "properties": {"name": "Everbowl", "category": "food", "label": "American Restaurant"}}, {"type": "Feature", "geometry": {"type": "Point", "coordinates": [-117.164772, 32.708298]}, "properties": {"name": "Exchange Pantry", "category": "food", "label": "Restaurant"}}, {"type": "Feature", "geometry": {"type": "Point", "coordinates": [-117.160385, 32.714344]}, "properties": {"name": "Eye Burger", "category": "food", "label": "Burger Restaurant"}}, {"type": "Feature", "geometry": {"type": "Point", "coordinates": [-117.168381, 32.720196]}, "properties": {"name": "Fabrison's French Cafe", "category": "food", "label": "French Restaurant"}}, {"type": "Feature", "geometry": {"type": "Point", "coordinates": [-117.157173, 32.713543]}, "properties": {"name": "Falafel California", "category": "food", "label": "Mediterranean Restaurant"}}, {"type": "Feature", "geometry": {"type": "Point", "coordinates": [-117.172096, 32.720757]}, "properties": {"name": "Family Deli", "category": "food", "label": "Delicatessen"}}, {"type": "Feature", "geometry": {"type": "Point", "coordinates": [-117.155853, 32.709587]}, "properties": {"name": "Far Corner", "category": "food", "label": "Pizza Restaurant"}}, {"type": "Feature", "geometry": {"type": "Point", "coordinates": [-117.168221, 32.723145]}, "properties": {"name": "Farmer\u2019s Table", "category": "food", "label": "American Restaurant"}}, {"type": "Feature", "geometry": {"type": "Point", "coordinates": [-117.168381, 32.710144]}, "properties": {"name": "FedEx Office Print & Ship Center", "category": "food", "label": "Courier And Delivery Services"}}, {"type": "Feature", "geometry": {"type": "Point", "coordinates": [-117.165504, 32.70808]}, "properties": {"name": "FedEx Office Print & Ship Center", "category": "food", "label": "Courier And Delivery Services"}}, {"type": "Feature", "geometry": {"type": "Point", "coordinates": [-117.162987, 32.707218]}, "properties": {"name": "FedEx Office Print & Ship Center", "category": "food", "label": "Courier And Delivery Services"}}, {"type": "Feature", "geometry": {"type": "Point", "coordinates": [-117.159492, 32.716946]}, "properties": {"name": "FedEx Office Print & Ship Center", "category": "food", "label": "Courier And Delivery Services"}}, {"type": "Feature", "geometry": {"type": "Point", "coordinates": [-117.162239, 32.718815]}, "properties": {"name": "FedEx Office Print & Ship Center", "category": "food", "label": "Courier And Delivery Services"}}, {"type": "Feature", "geometry": {"type": "Point", "coordinates": [-117.166092, 32.716091]}, "properties": {"name": "Fiesta Mexican Grille", "category": "food", "label": "Mexican Restaurant"}}, {"type": "Feature", "geometry": {"type": "Point", "coordinates": [-117.160439, 32.721649]}, "properties": {"name": "Fifth Ave Grill", "category": "food", "label": "Persian Iranian Restaurant"}}, {"type": "Feature", "geometry": {"type": "Point", "coordinates": [-117.168304, 32.723736]}, "properties": {"name": "Filippi's Pizza Grotto Italian Market", "category": "food", "label": "Italian Restaurant"}}, {"type": "Feature", "geometry": {"type": "Point", "coordinates": [-117.15995, 32.71381]}, "properties": {"name": "Fio's Cucina Italiana", "category": "food", "label": "Italian Restaurant"}}, {"type": "Feature", "geometry": {"type": "Point", "coordinates": [-117.167747, 32.720596]}, "properties": {"name": "Fisher\u2019s", "category": "food", "label": "Seafood Restaurant"}}, {"type": "Feature", "geometry": {"type": "Point", "coordinates": [-117.159409, 32.722149]}, "properties": {"name": "Flamin' Pho", "category": "food", "label": "Vietnamese Restaurant"}}, {"type": "Feature", "geometry": {"type": "Point", "coordinates": [-117.161263, 32.708427]}, "properties": {"name": "Fleming's Prime Steakhouse and Wine Bar", "category": "food", "label": "Steakhouse"}}, {"type": "Feature", "geometry": {"type": "Point", "coordinates": [-117.1604, 32.712391]}, "properties": {"name": "Florent Restaurant & Lounge", "category": "food", "label": "American Restaurant"}}, {"type": "Feature", "geometry": {"type": "Point", "coordinates": [-117.159409, 32.712341]}, "properties": {"name": "Fogo de Chao Brazilian Steakhouse", "category": "food", "label": "Brazilian Restaurant"}}, {"type": "Feature", "geometry": {"type": "Point", "coordinates": [-117.159927, 32.710121]}, "properties": {"name": "Food Shop", "category": "food", "label": "Vietnamese Restaurant"}}, {"type": "Feature", "geometry": {"type": "Point", "coordinates": [-117.167648, 32.717422]}, "properties": {"name": "Food Trucks", "category": "food", "label": "Food Truck"}}, {"type": "Feature", "geometry": {"type": "Point", "coordinates": [-117.159142, 32.714382]}, "properties": {"name": "Fred's Lunch Bag Deli", "category": "food", "label": "Delicatessen"}}, {"type": "Feature", "geometry": {"type": "Point", "coordinates": [-117.160103, 32.710823]}, "properties": {"name": "Fred's Mexican Caf\u00e9", "category": "food", "label": "Mexican Restaurant"}}, {"type": "Feature", "geometry": {"type": "Point", "coordinates": [-117.161186, 32.71101]}, "properties": {"name": "Freddy\u2019s Chophouse", "category": "food", "label": "Steakhouse"}}, {"type": "Feature", "geometry": {"type": "Point", "coordinates": [-117.158516, 32.707172]}, "properties": {"name": "Fres.Co", "category": "food", "label": "Restaurant"}}, {"type": "Feature", "geometry": {"type": "Point", "coordinates": [-117.160461, 32.715076]}, "properties": {"name": "Full Moon Sushi & Kitchen Bar", "category": "food", "label": "Sushi Restaurant"}}, {"type": "Feature", "geometry": {"type": "Point", "coordinates": [-117.160614, 32.711399]}, "properties": {"name": "Funky Garcia's", "category": "food", "label": "Taco Restaurant"}}, {"type": "Feature", "geometry": {"type": "Point", "coordinates": [-117.153595, 32.711117]}, "properties": {"name": "Gabriella's New York City Pizza", "category": "food", "label": "Pizza Restaurant"}}, {"type": "Feature", "geometry": {"type": "Point", "coordinates": [-117.160835, 32.712101]}, "properties": {"name": "Gaijin Noodle + Sake House", "category": "food", "label": "Japanese Restaurant"}}, {"type": "Feature", "geometry": {"type": "Point", "coordinates": [-117.169647, 32.710617]}, "properties": {"name": "Galp\u00e3o Gaucho Brazilian Steakhouse", "category": "food", "label": "Brazilian Restaurant"}}, {"type": "Feature", "geometry": {"type": "Point", "coordinates": [-117.172653, 32.716278]}, "properties": {"name": "Garlic & Tahini", "category": "food", "label": "Middle Eastern Restaurant"}}, {"type": "Feature", "geometry": {"type": "Point", "coordinates": [-117.159431, 32.709286]}, "properties": {"name": "Gaslamp Breakfast Company", "category": "food", "label": "Breakfast And Brunch Restaurant"}}, {"type": "Feature", "geometry": {"type": "Point", "coordinates": [-117.160233, 32.7131]}, "properties": {"name": "Gaslamp Burger", "category": "food", "label": "Burger Restaurant"}}, {"type": "Feature", "geometry": {"type": "Point", "coordinates": [-117.160789, 32.715481]}, "properties": {"name": "Gaslamp Fish House", "category": "food", "label": "Seafood Restaurant"}}, {"type": "Feature", "geometry": {"type": "Point", "coordinates": [-117.160797, 32.713547]}, "properties": {"name": "Gaslamp Lumpia Factory", "category": "food", "label": "Filipino Restaurant"}}, {"type": "Feature", "geometry": {"type": "Point", "coordinates": [-117.159973, 32.710602]}, "properties": {"name": "Gaslamp Pizza", "category": "food", "label": "Pizza Restaurant"}}, {"type": "Feature", "geometry": {"type": "Point", "coordinates": [-117.170067, 32.711391]}, "properties": {"name": "Gelato Paradiso", "category": "food", "label": "Desserts"}}, {"type": "Feature", "geometry": {"type": "Point", "coordinates": [-117.16021, 32.714199]}, "properties": {"name": "George's on Fifth Restaurant", "category": "food", "label": "American Restaurant"}}, {"type": "Feature", "geometry": {"type": "Point", "coordinates": [-117.159904, 32.71397]}, "properties": {"name": "Ghost Heist Taco's", "category": "food", "label": "Taco Restaurant"}}, {"type": "Feature", "geometry": {"type": "Point", "coordinates": [-117.159904, 32.713966]}, "properties": {"name": "Ghost Heist Tacos", "category": "food", "label": "Taco Restaurant"}}, {"type": "Feature", "geometry": {"type": "Point", "coordinates": [-117.168976, 32.716396]}, "properties": {"name": "Giovanni's Trattoria", "category": "food", "label": "Italian Restaurant"}}, {"type": "Feature", "geometry": {"type": "Point", "coordinates": [-117.154167, 32.710186]}, "properties": {"name": "God Save the Cuisine", "category": "food", "label": "Food Truck"}}, {"type": "Feature", "geometry": {"type": "Point", "coordinates": [-117.160774, 32.713799]}, "properties": {"name": "Gourmet India", "category": "food", "label": "Indian Restaurant"}}, {"type": "Feature", "geometry": {"type": "Point", "coordinates": [-117.164047, 32.716618]}, "properties": {"name": "Grab & Go Subs", "category": "food", "label": "Sandwich Shop"}}, {"type": "Feature", "geometry": {"type": "Point", "coordinates": [-117.168121, 32.71006]}, "properties": {"name": "Grand Club", "category": "food", "label": "Restaurant"}}, {"type": "Feature", "geometry": {"type": "Point", "coordinates": [-117.161087, 32.716122]}, "properties": {"name": "Grant Grill", "category": "food", "label": "American Restaurant"}}, {"type": "Feature", "geometry": {"type": "Point", "coordinates": [-117.157112, 32.711407]}, "properties": {"name": "Grapes and Hops Deli", "category": "food", "label": "Delicatessen"}}, {"type": "Feature", "geometry": {"type": "Point", "coordinates": [-117.167892, 32.722706]}, "properties": {"name": "Graze By Sam", "category": "food", "label": "Restaurant"}}, {"type": "Feature", "geometry": {"type": "Point", "coordinates": [-117.160011, 32.715611]}, "properties": {"name": "Great Wall Express", "category": "food", "label": "Chinese Restaurant"}}, {"type": "Feature", "geometry": {"type": "Point", "coordinates": [-117.169182, 32.709339]}, "properties": {"name": "Greek Island Cafe", "category": "food", "label": "Greek Restaurant"}}, {"type": "Feature", "geometry": {"type": "Point", "coordinates": [-117.160385, 32.71228]}, "properties": {"name": "Greystone Prime Steakhouse & Seafood", "category": "food", "label": "Steakhouse"}}, {"type": "Feature", "geometry": {"type": "Point", "coordinates": [-117.160034, 32.712254]}, "properties": {"name": "Guirardelli San Diego - California", "category": "food", "label": "Ice Cream Shop"}}, {"type": "Feature", "geometry": {"type": "Point", "coordinates": [-117.159866, 32.713783]}, "properties": {"name": "Gyu-kaku Japanese Bbq", "category": "food", "label": "Japanese Restaurant"}}, {"type": "Feature", "geometry": {"type": "Point", "coordinates": [-117.157234, 32.716568]}, "properties": {"name": "Haji Baba", "category": "food", "label": "Mediterranean Restaurant"}}, {"type": "Feature", "geometry": {"type": "Point", "coordinates": [-117.168488, 32.721016]}, "properties": {"name": "Harbor Breakfast", "category": "food", "label": "Breakfast And Brunch Restaurant"}}, {"type": "Feature", "geometry": {"type": "Point", "coordinates": [-117.169739, 32.708572]}, "properties": {"name": "Harbor House Restaurant", "category": "food", "label": "Seafood Restaurant"}}, {"type": "Feature", "geometry": {"type": "Point", "coordinates": [-117.160988, 32.713737]}, "properties": {"name": "Hard Rock Cafe San Diego", "category": "food", "label": "Theme Restaurant"}}, {"type": "Feature", "geometry": {"type": "Point", "coordinates": [-117.155449, 32.709335]}, "properties": {"name": "Harvest by The Patio", "category": "food", "label": "American Restaurant"}}, {"type": "Feature", "geometry": {"type": "Point", "coordinates": [-117.160286, 32.708534]}, "properties": {"name": "Hasta Ma\u00f1ana Cantina", "category": "food", "label": "Mexican Restaurant"}}, {"type": "Feature", "geometry": {"type": "Point", "coordinates": [-117.160309, 32.711105]}, "properties": {"name": "Havana 1920", "category": "food", "label": "Cuban Restaurant"}}, {"type": "Feature", "geometry": {"type": "Point", "coordinates": [-117.160645, 32.712749]}, "properties": {"name": "Hebrew National", "category": "food", "label": "Hot Dog Restaurant"}}, {"type": "Feature", "geometry": {"type": "Point", "coordinates": [-117.1688, 32.722904]}, "properties": {"name": "Heritage Family Farms", "category": "food", "label": "Food Stand"}}, {"type": "Feature", "geometry": {"type": "Point", "coordinates": [-117.160492, 32.708027]}, "properties": {"name": "HHC", "category": "food", "label": "American Restaurant"}}, {"type": "Feature", "geometry": {"type": "Point", "coordinates": [-117.156792, 32.712265]}, "properties": {"name": "Hi Poke East Village", "category": "food", "label": "Hawaiian Restaurant"}}, {"type": "Feature", "geometry": {"type": "Point", "coordinates": [-117.159531, 32.713428]}, "properties": {"name": "Hills Pizza", "category": "food", "label": "Pizza Restaurant"}}, {"type": "Feature", "geometry": {"type": "Point", "coordinates": [-117.155319, 32.709129]}, "properties": {"name": "Himmelberg's", "category": "food", "label": "Restaurant"}}, {"type": "Feature", "geometry": {"type": "Point", "coordinates": [-117.1558, 32.715652]}, "properties": {"name": "Hodad's Downtown", "category": "food", "label": "Burger Restaurant"}}, {"type": "Feature", "geometry": {"type": "Point", "coordinates": [-117.166916, 32.72348]}, "properties": {"name": "Hodad's Jr Catering", "category": "food", "label": "Food Truck"}}, {"type": "Feature", "geometry": {"type": "Point", "coordinates": [-117.158058, 32.706921]}, "properties": {"name": "Hodad's Petco Park", "category": "food", "label": "Burger Restaurant"}}, {"type": "Feature", "geometry": {"type": "Point", "coordinates": [-117.160538, 32.712666]}, "properties": {"name": "Hot Dogs at 428", "category": "food", "label": "Hot Dog Restaurant"}}, {"type": "Feature", "geometry": {"type": "Point", "coordinates": [-117.15963, 32.716446]}, "properties": {"name": "House of Blues San Diego", "category": "food", "label": "Restaurant"}}, {"type": "Feature", "geometry": {"type": "Point", "coordinates": [-117.160301, 32.708218]}, "properties": {"name": "Houston TX Hot Chicken", "category": "food", "label": "Chicken Restaurant"}}, {"type": "Feature", "geometry": {"type": "Point", "coordinates": [-117.159515, 32.713245]}, "properties": {"name": "Hub Market & Deli", "category": "food", "label": "Delicatessen"}}, {"type": "Feature", "geometry": {"type": "Point", "coordinates": [-117.15831, 32.703548]}, "properties": {"name": "Hudson & Nash", "category": "food", "label": "American Restaurant"}}, {"type": "Feature", "geometry": {"type": "Point", "coordinates": [-117.160255, 32.70924]}, "properties": {"name": "Huntress", "category": "food", "label": "Steakhouse"}}, {"type": "Feature", "geometry": {"type": "Point", "coordinates": [-117.161263, 32.710339]}, "properties": {"name": "Ida Bailey's Restaurant", "category": "food", "label": "Breakfast And Brunch Restaurant"}}, {"type": "Feature", "geometry": {"type": "Point", "coordinates": [-117.168297, 32.722366]}, "properties": {"name": "iDessert", "category": "food", "label": "Desserts"}}, {"type": "Feature", "geometry": {"type": "Point", "coordinates": [-117.16098, 32.712616]}, "properties": {"name": "IHOP", "category": "food", "label": "Breakfast And Brunch Restaurant"}}, {"type": "Feature", "geometry": {"type": "Point", "coordinates": [-117.160332, 32.710987]}, "properties": {"name": "Ike's Love & Sandwiches", "category": "food", "label": "Sandwich Shop"}}, {"type": "Feature", "geometry": {"type": "Point", "coordinates": [-117.1605, 32.71093]}, "properties": {"name": "Ike\u2019s Place", "category": "food", "label": "Sandwich Shop"}}, {"type": "Feature", "geometry": {"type": "Point", "coordinates": [-117.160225, 32.708649]}, "properties": {"name": "Il Sogno Italiano", "category": "food", "label": "Italian Restaurant"}}, {"type": "Feature", "geometry": {"type": "Point", "coordinates": [-117.170845, 32.720695]}, "properties": {"name": "Infamy Brews Craft Beverages", "category": "food", "label": "Food Beverage Service Distribution"}}, {"type": "Feature", "geometry": {"type": "Point", "coordinates": [-117.159752, 32.711601]}, "properties": {"name": "Infinium Spirits", "category": "food", "label": "Food Beverage Service Distribution"}}, {"type": "Feature", "geometry": {"type": "Point", "coordinates": [-117.159988, 32.714161]}, "properties": {"name": "Inka's Bar & Grill", "category": "food", "label": "Peruvian Restaurant"}}, {"type": "Feature", "geometry": {"type": "Point", "coordinates": [-117.160347, 32.710987]}, "properties": {"name": "Insomnia Cookies", "category": "food", "label": "Desserts"}}, {"type": "Feature", "geometry": {"type": "Point", "coordinates": [-117.156204, 32.711857]}, "properties": {"name": "Ironside Fish & Oyster", "category": "food", "label": "Restaurant"}}, {"type": "Feature", "geometry": {"type": "Point", "coordinates": [-117.168472, 32.722672]}, "properties": {"name": "Ironside Fish & Oyster", "category": "food", "label": "Seafood Restaurant"}}, {"type": "Feature", "geometry": {"type": "Point", "coordinates": [-117.162575, 32.7089]}, "properties": {"name": "Island Prime", "category": "food", "label": "American Restaurant"}}, {"type": "Feature", "geometry": {"type": "Point", "coordinates": [-117.168449, 32.721207]}, "properties": {"name": "Isola Pizza Bar", "category": "food", "label": "Italian Restaurant"}}, {"type": "Feature", "geometry": {"type": "Point", "coordinates": [-117.159508, 32.715584]}, "properties": {"name": "Istanbul Doner Kebab", "category": "food", "label": "Turkish Restaurant"}}, {"type": "Feature", "geometry": {"type": "Point", "coordinates": [-117.161316, 32.713852]}, "properties": {"name": "Italia Mia", "category": "food", "label": "Italian Restaurant"}}, {"type": "Feature", "geometry": {"type": "Point", "coordinates": [-117.160507, 32.712021]}, "properties": {"name": "Italia Restaurante", "category": "food", "label": "Italian Restaurant"}}, {"type": "Feature", "geometry": {"type": "Point", "coordinates": [-117.157883, 32.711514]}, "properties": {"name": "J.Wok", "category": "food", "label": "Asian Fusion Restaurant"}}, {"type": "Feature", "geometry": {"type": "Point", "coordinates": [-117.163261, 32.717785]}, "properties": {"name": "Ja Java", "category": "food", "label": "Restaurant"}}, {"type": "Feature", "geometry": {"type": "Point", "coordinates": [-117.170937, 32.722134]}, "properties": {"name": "Jack in the Box", "category": "food", "label": "Fast Food Restaurant"}}, {"type": "Feature", "geometry": {"type": "Point", "coordinates": [-117.154526, 32.71682]}, "properties": {"name": "Jack in the Box", "category": "food", "label": "Fast Food Restaurant"}}, {"type": "Feature", "geometry": {"type": "Point", "coordinates": [-117.158157, 32.716579]}, "properties": {"name": "Jade Theater", "category": "food", "label": "Asian Restaurant"}}, {"type": "Feature", "geometry": {"type": "Point", "coordinates": [-117.150398, 32.710197]}, "properties": {"name": "Jai Jus", "category": "food", "label": "Mediterranean Restaurant"}}, {"type": "Feature", "geometry": {"type": "Point", "coordinates": [-117.173386, 32.715408]}, "properties": {"name": "JB Mexican Taste", "category": "food", "label": "Mexican Restaurant"}}, {"type": "Feature", "geometry": {"type": "Point", "coordinates": [-117.153992, 32.713028]}, "properties": {"name": "Jibaritos de la Isla", "category": "food", "label": "Dominican Restaurant"}}, {"type": "Feature", "geometry": {"type": "Point", "coordinates": [-117.159012, 32.716503]}, "properties": {"name": "Jimmy John's", "category": "food", "label": "Sandwich Shop"}}, {"type": "Feature", "geometry": {"type": "Point", "coordinates": [-117.164589, 32.704262]}, "properties": {"name": "Joe's Crab Shack", "category": "food", "label": "Seafood Restaurant"}}, {"type": "Feature", "geometry": {"type": "Point", "coordinates": [-117.163315, 32.704659]}, "properties": {"name": "Joe's Crab Shack", "category": "food", "label": "Seafood Restaurant"}}, {"type": "Feature", "geometry": {"type": "Point", "coordinates": [-117.16246, 32.715214]}, "properties": {"name": "Jose s Tacos", "category": "food", "label": "Taco Restaurant"}}, {"type": "Feature", "geometry": {"type": "Point", "coordinates": [-117.159035, 32.709576]}, "properties": {"name": "Jsix Bar", "category": "food", "label": "American Restaurant"}}, {"type": "Feature", "geometry": {"type": "Point", "coordinates": [-117.167198, 32.716202]}, "properties": {"name": "Judy Burger", "category": "food", "label": "Burger Restaurant"}}, {"type": "Feature", "geometry": {"type": "Point", "coordinates": [-117.160812, 32.711464]}, "properties": {"name": "K7 - Kamikaze Seven", "category": "food", "label": "Sushi Restaurant"}}, {"type": "Feature", "geometry": {"type": "Point", "coordinates": [-117.160378, 32.710888]}, "properties": {"name": "Kalu\u00fa Upscale Mexican & Lounge", "category": "food", "label": "Mexican Restaurant"}}, {"type": "Feature", "geometry": {"type": "Point", "coordinates": [-117.160034, 32.713326]}, "properties": {"name": "Karina's Cantina Gaslamp", "category": "food", "label": "Texmex Restaurant"}}, {"type": "Feature", "geometry": {"type": "Point", "coordinates": [-117.159058, 32.713665]}, "properties": {"name": "Katsuya", "category": "food", "label": "Sushi Restaurant"}}, {"type": "Feature", "geometry": {"type": "Point", "coordinates": [-117.16687, 32.717518]}, "properties": {"name": "Kelvin at Renaissance San Diego Downtown Hotel", "category": "food", "label": "Restaurant"}}, {"type": "Feature", "geometry": {"type": "Point", "coordinates": [-117.160881, 32.71664]}, "properties": {"name": "Kiko's Place", "category": "food", "label": "Seafood Restaurant"}}, {"type": "Feature", "geometry": {"type": "Point", "coordinates": [-117.169327, 32.72073]}, "properties": {"name": "King and Queen Cantina", "category": "food", "label": "Mexican Restaurant"}}, {"type": "Feature", "geometry": {"type": "Point", "coordinates": [-117.158646, 32.716206]}, "properties": {"name": "Krisp Pizza", "category": "food", "label": "Pizza Restaurant"}}, {"type": "Feature", "geometry": {"type": "Point", "coordinates": [-117.153534, 32.711258]}, "properties": {"name": "Krispy Krunchy Chicken", "category": "food", "label": "Chicken Restaurant"}}, {"type": "Feature", "geometry": {"type": "Point", "coordinates": [-117.154152, 32.717659]}, "properties": {"name": "La California Food Truck", "category": "food", "label": "Mexican Restaurant"}}, {"type": "Feature", "geometry": {"type": "Point", "coordinates": [-117.168488, 32.721546]}, "properties": {"name": "La Casa Verde", "category": "food", "label": "Mexican Restaurant"}}, {"type": "Feature", "geometry": {"type": "Point", "coordinates": [-117.153229, 32.716488]}, "properties": {"name": "La Casita Restaurant", "category": "food", "label": "Restaurant"}}, {"type": "Feature", "geometry": {"type": "Point", "coordinates": [-117.159554, 32.708473]}, "properties": {"name": "La Conde Cantina", "category": "food", "label": "Mexican Restaurant"}}, {"type": "Feature", "geometry": {"type": "Point", "coordinates": [-117.160164, 32.712048]}, "properties": {"name": "La Fiesta Mexican Cuisine & Lounge", "category": "food", "label": "Mexican Restaurant"}}, {"type": "Feature", "geometry": {"type": "Point", "coordinates": [-117.158882, 32.717556]}, "properties": {"name": "La Gran Tapa", "category": "food", "label": "Spanish Restaurant"}}, {"type": "Feature", "geometry": {"type": "Point", "coordinates": [-117.161232, 32.711258]}, "properties": {"name": "La Puerta", "category": "food", "label": "Mexican Restaurant"}}, {"type": "Feature", "geometry": {"type": "Point", "coordinates": [-117.168495, 32.722572]}, "properties": {"name": "La Villa Restaurant & Bar", "category": "food", "label": "Italian Restaurant"}}, {"type": "Feature", "geometry": {"type": "Point", "coordinates": [-117.161133, 32.71109]}, "properties": {"name": "Las Hadas Bar and Grill", "category": "food", "label": "Mexican Restaurant"}}, {"type": "Feature", "geometry": {"type": "Point", "coordinates": [-117.160141, 32.711742]}, "properties": {"name": "LAVO Italian Restaurant", "category": "food", "label": "Restaurant"}}, {"type": "Feature", "geometry": {"type": "Point", "coordinates": [-117.163864, 32.720398]}, "properties": {"name": "Layover", "category": "food", "label": "Restaurant"}}, {"type": "Feature", "geometry": {"type": "Point", "coordinates": [-117.162254, 32.70966]}, "properties": {"name": "Lazy Hippo", "category": "food", "label": "Breakfast And Brunch Restaurant"}}, {"type": "Feature", "geometry": {"type": "Point", "coordinates": [-117.162453, 32.716267]}, "properties": {"name": "Le Fontainbleau - The Westgate Hotel", "category": "food", "label": "French Restaurant"}}, {"type": "Feature", "geometry": {"type": "Point", "coordinates": [-117.160461, 32.710831]}, "properties": {"name": "Lefty's Cheesesteaks", "category": "food", "label": "Fast Food Restaurant"}}, {"type": "Feature", "geometry": {"type": "Point", "coordinates": [-117.159035, 32.713455]}, "properties": {"name": "LG's Prime Steakhouse", "category": "food", "label": "Steakhouse"}}, {"type": "Feature", "geometry": {"type": "Point", "coordinates": [-117.159889, 32.709949]}, "properties": {"name": "Lionfish Modern Coastal Cuisine \u2013 San Diego", "category": "food", "label": "Seafood Restaurant"}}, {"type": "Feature", "geometry": {"type": "Point", "coordinates": [-117.167656, 32.723152]}, "properties": {"name": "Little Italy Food Hall", "category": "food", "label": "Italian Restaurant"}}, {"type": "Feature", "geometry": {"type": "Point", "coordinates": [-117.153122, 32.713764]}, "properties": {"name": "Lola 55", "category": "food", "label": "Latin American Restaurant"}}, {"type": "Feature", "geometry": {"type": "Point", "coordinates": [-117.154968, 32.707691]}, "properties": {"name": "Lolita's Mexican Food", "category": "food", "label": "Mexican Restaurant"}}, {"type": "Feature", "geometry": {"type": "Point", "coordinates": [-117.17083, 32.721786]}, "properties": {"name": "Los Panchitos", "category": "food", "label": "Mexican Restaurant"}}, {"type": "Feature", "geometry": {"type": "Point", "coordinates": [-117.160477, 32.714603]}, "properties": {"name": "Los Panchos Mexican Grill & Cantina", "category": "food", "label": "Mexican Restaurant"}}, {"type": "Feature", "geometry": {"type": "Point", "coordinates": [-117.156258, 32.711662]}, "properties": {"name": "Lotus Thai Cuisine", "category": "food", "label": "Thai Restaurant"}}, {"type": "Feature", "geometry": {"type": "Point", "coordinates": [-117.160255, 32.70768]}, "properties": {"name": "Lou & Mickey's", "category": "food", "label": "Steakhouse"}}, {"type": "Feature", "geometry": {"type": "Point", "coordinates": [-117.160004, 32.715549]}, "properties": {"name": "Louisiana Famous Fried Chicken", "category": "food", "label": "Chicken Restaurant"}}, {"type": "Feature", "geometry": {"type": "Point", "coordinates": [-117.160233, 32.714184]}, "properties": {"name": "Lucky B*stard Saloon", "category": "food", "label": "American Restaurant"}}, {"type": "Feature", "geometry": {"type": "Point", "coordinates": [-117.161186, 32.709461]}, "properties": {"name": "Lucky Liu's", "category": "food", "label": "Chinese Restaurant"}}, {"type": "Feature", "geometry": {"type": "Point", "coordinates": [-117.158371, 32.708855]}, "properties": {"name": "Lucky's Lunch Counter", "category": "food", "label": "Breakfast And Brunch Restaurant"}}, {"type": "Feature", "geometry": {"type": "Point", "coordinates": [-117.164124, 32.71661]}, "properties": {"name": "Lucys Taco Shop", "category": "food", "label": "Taco Restaurant"}}, {"type": "Feature", "geometry": {"type": "Point", "coordinates": [-117.160217, 32.70927]}, "properties": {"name": "Lumi", "category": "food", "label": "Japanese Restaurant"}}, {"type": "Feature", "geometry": {"type": "Point", "coordinates": [-117.158646, 32.709198]}, "properties": {"name": "Luna Lounge", "category": "food", "label": "Restaurant"}}, {"type": "Feature", "geometry": {"type": "Point", "coordinates": [-117.160774, 32.718536]}, "properties": {"name": "Lunch Bag Deli II", "category": "food", "label": "Restaurant"}}, {"type": "Feature", "geometry": {"type": "Point", "coordinates": [-117.153992, 32.713036]}, "properties": {"name": "Macro Meal Prep San Diego", "category": "food", "label": "Food Delivery Service"}}, {"type": "Feature", "geometry": {"type": "Point", "coordinates": [-117.160355, 32.719555]}, "properties": {"name": "Maestro Lounge", "category": "food", "label": "Arabian Restaurant"}}, {"type": "Feature", "geometry": {"type": "Point", "coordinates": [-117.153557, 32.712486]}, "properties": {"name": "MAKE pizza+salad", "category": "food", "label": "Pizza Restaurant"}}, {"type": "Feature", "geometry": {"type": "Point", "coordinates": [-117.169609, 32.708797]}, "properties": {"name": "Malibu Farm San Diego", "category": "food", "label": "Restaurant"}}, {"type": "Feature", "geometry": {"type": "Point", "coordinates": [-117.169701, 32.708515]}, "properties": {"name": "Malibu Farm San Diego", "category": "food", "label": "American Restaurant"}}, {"type": "Feature", "geometry": {"type": "Point", "coordinates": [-117.169777, 32.708591]}, "properties": {"name": "Malibu Farms", "category": "food", "label": "Restaurant"}}, {"type": "Feature", "geometry": {"type": "Point", "coordinates": [-117.159065, 32.717346]}, "properties": {"name": "Mama Lucci's", "category": "food", "label": "Italian Restaurant"}}, {"type": "Feature", "geometry": {"type": "Point", "coordinates": [-117.160965, 32.710369]}, "properties": {"name": "Mam\u00e1 X Dios", "category": "food", "label": "Mexican Restaurant"}}, {"type": "Feature", "geometry": {"type": "Point", "coordinates": [-117.159882, 32.71376]}, "properties": {"name": "Manna Heaven BBQ Downtown", "category": "food", "label": "Korean Restaurant"}}, {"type": "Feature", "geometry": {"type": "Point", "coordinates": [-117.159966, 32.710995]}, "properties": {"name": "Marble Room", "category": "food", "label": "American Restaurant"}}, {"type": "Feature", "geometry": {"type": "Point", "coordinates": [-117.171371, 32.709362]}, "properties": {"name": "Margarita's Kitchen & Cantina", "category": "food", "label": "Mexican Restaurant"}}, {"type": "Feature", "geometry": {"type": "Point", "coordinates": [-117.160965, 32.716541]}, "properties": {"name": "Maria's Mexican Cocina", "category": "food", "label": "Mexican Restaurant"}}, {"type": "Feature", "geometry": {"type": "Point", "coordinates": [-117.164993, 32.70739]}, "properties": {"name": "Marina Kitchen", "category": "food", "label": "Restaurant"}}, {"type": "Feature", "geometry": {"type": "Point", "coordinates": [-117.171822, 32.70956]}, "properties": {"name": "Marion's Fish Market & Restaurant", "category": "food", "label": "Seafood Restaurant"}}, {"type": "Feature", "geometry": {"type": "Point", "coordinates": [-117.160759, 32.71146]}, "properties": {"name": "Mariscos El Pulpo", "category": "food", "label": "Mexican Restaurant"}}, {"type": "Feature", "geometry": {"type": "Point", "coordinates": [-117.168777, 32.710411]}, "properties": {"name": "Market One", "category": "food", "label": "Delicatessen"}}, {"type": "Feature", "geometry": {"type": "Point", "coordinates": [-117.159889, 32.707748]}, "properties": {"name": "Maryjane's", "category": "food", "label": "Diner"}}, {"type": "Feature", "geometry": {"type": "Point", "coordinates": [-117.160095, 32.708572]}, "properties": {"name": "Masala Spices Of India", "category": "food", "label": "Indian Restaurant"}}, {"type": "Feature", "geometry": {"type": "Point", "coordinates": [-117.172081, 32.716099]}, "properties": {"name": "Mastro's Ocean Club", "category": "food", "label": "Steakhouse"}}, {"type": "Feature", "geometry": {"type": "Point", "coordinates": [-117.167923, 32.715553]}, "properties": {"name": "Matisse Bistro", "category": "food", "label": "Restaurant"}}, {"type": "Feature", "geometry": {"type": "Point", "coordinates": [-117.159431, 32.710712]}, "properties": {"name": "Mattarello Cooking Lab", "category": "food", "label": "Italian Restaurant"}}, {"type": "Feature", "geometry": {"type": "Point", "coordinates": [-117.159882, 32.713982]}, "properties": {"name": "MAX New York Steakhouse", "category": "food", "label": "Steakhouse"}}, {"type": "Feature", "geometry": {"type": "Point", "coordinates": [-117.159584, 32.719376]}, "properties": {"name": "Maza Grill Kabob", "category": "food", "label": "Middle Eastern Restaurant"}}, {"type": "Feature", "geometry": {"type": "Point", "coordinates": [-117.159103, 32.707092]}, "properties": {"name": "McCormick & Schmick's Seafood & Steaks", "category": "food", "label": "Seafood Restaurant"}}, {"type": "Feature", "geometry": {"type": "Point", "coordinates": [-117.154099, 32.718765]}, "properties": {"name": "McDonald's", "category": "food", "label": "Fast Food Restaurant"}}, {"type": "Feature", "geometry": {"type": "Point", "coordinates": [-117.163383, 32.711891]}, "properties": {"name": "McDonald's San Diego", "category": "food", "label": "Fast Food Restaurant"}}, {"type": "Feature", "geometry": {"type": "Point", "coordinates": [-117.160103, 32.713139]}, "properties": {"name": "McFadden's", "category": "food", "label": "Restaurant"}}, {"type": "Feature", "geometry": {"type": "Point", "coordinates": [-117.167725, 32.723179]}, "properties": {"name": "Mein St Asian Kitchen", "category": "food", "label": "Asian Restaurant"}}, {"type": "Feature", "geometry": {"type": "Point", "coordinates": [-117.159966, 32.714767]}, "properties": {"name": "Melting Pot", "category": "food", "label": "Fondue Restaurant"}}, {"type": "Feature", "geometry": {"type": "Point", "coordinates": [-117.158989, 32.708935]}, "properties": {"name": "Meze Greek Fusion", "category": "food", "label": "Greek Restaurant"}}, {"type": "Feature", "geometry": {"type": "Point", "coordinates": [-117.163673, 32.71096]}, "properties": {"name": "Michaela's Meals", "category": "food", "label": "Food Delivery Service"}}, {"type": "Feature", "geometry": {"type": "Point", "coordinates": [-117.173531, 32.719337]}, "properties": {"name": "Miguel's Cocina", "category": "food", "label": "Mexican Restaurant"}}, {"type": "Feature", "geometry": {"type": "Point", "coordinates": [-117.168259, 32.723625]}, "properties": {"name": "Mimmo's", "category": "food", "label": "Italian Restaurant"}}, {"type": "Feature", "geometry": {"type": "Point", "coordinates": [-117.160965, 32.713383]}, "properties": {"name": "Mimoza Mediterranean Restaurant", "category": "food", "label": "Mediterranean Restaurant"}}, {"type": "Feature", "geometry": {"type": "Point", "coordinates": [-117.161064, 32.712955]}, "properties": {"name": "Mint Downtown Thai", "category": "food", "label": "Thai Restaurant"}}, {"type": "Feature", "geometry": {"type": "Point", "coordinates": [-117.163658, 32.720345]}, "properties": {"name": "Mixon Liquor and Deli", "category": "food", "label": "Delicatessen"}}, {"type": "Feature", "geometry": {"type": "Point", "coordinates": [-117.171974, 32.709396]}, "properties": {"name": "MM Tours, LLC", "category": "food", "label": "Food Tours"}}, {"type": "Feature", "geometry": {"type": "Point", "coordinates": [-117.160324, 32.716991]}, "properties": {"name": "Mocozy", "category": "food", "label": "Restaurant"}}, {"type": "Feature", "geometry": {"type": "Point", "coordinates": [-117.166382, 32.708885]}, "properties": {"name": "Molly's Restaurant", "category": "food", "label": "Restaurant"}}, {"type": "Feature", "geometry": {"type": "Point", "coordinates": [-117.159996, 32.710335]}, "properties": {"name": "Monkey King", "category": "food", "label": "Asian Restaurant"}}, {"type": "Feature", "geometry": {"type": "Point", "coordinates": [-117.160789, 32.713013]}, "properties": {"name": "Monsoon Fine Cuisine Of India", "category": "food", "label": "Indian Restaurant"}}, {"type": "Feature", "geometry": {"type": "Point", "coordinates": [-117.155449, 32.70993]}, "properties": {"name": "Monzu Fresh Pasta", "category": "food", "label": "Italian Restaurant"}}, {"type": "Feature", "geometry": {"type": "Point", "coordinates": [-117.168144, 32.723072]}, "properties": {"name": "Morning Glory", "category": "food", "label": "Breakfast And Brunch Restaurant"}}, {"type": "Feature", "geometry": {"type": "Point", "coordinates": [-117.162209, 32.709148]}, "properties": {"name": "Morton's The Steakhouse", "category": "food", "label": "Steakhouse"}}, {"type": "Feature", "geometry": {"type": "Point", "coordinates": [-117.171837, 32.709408]}, "properties": {"name": "Mr. Moto Pizza", "category": "food", "label": "Pizza Restaurant"}}, {"type": "Feature", "geometry": {"type": "Point", "coordinates": [-117.168442, 32.72319]},